station_na,lng,lat,f1,line,f2,f3,geometry,Cement,Steel,Gravel,Sand,Asphalt,Copper,Total
开福区政府,112.98541200000001,28.262048999999998,0,1号线,1,0,POINT (12576855.87754688 3282481.5981212),210554.7,16278.17,678.9,4366.0,3037.44,4.54,218642
马厂,112.98870600000001,28.251248999999998,0,1号线,1,0,POINT (12577221.32132128 3281115.467430733),210554.7,16278.17,678.9,4366.0,3037.44,4.54,218642
北辰三角洲,112.983575,28.236228000000004,0,1号线,1,0,POINT (12576652.35580928 3279219.243514508),210554.7,16278.17,678.9,4366.0,3037.44,4.54,218642
开福寺,112.979552,28.222438,0,1号线,1,0,POINT (12576206.24153972 3277478.33922365),210554.7,16278.17,678.9,4366.0,3037.44,4.54,218642
文昌阁,112.978199,28.212711,0,1号线,1,0,POINT (12576056.2442885 3276249.93397722),210554.7,16278.17,678.9,4366.0,3037.44,4.54,218642
培元桥,112.976453,28.206184999999998,0,1号线,1,0,POINT (12575862.61798397 3275426.129025967),210554.7,16278.17,678.9,4366.0,3037.44,4.54,218642
五一广场,112.97643300000001,28.195317,1,1号线,1,0,POINT (12575860.49639152 3274053.284442855),210554.7,16278.17,678.9,4366.0,3037.44,4.54,218642
黄兴广场,112.976431,28.189421000000003,0,1号线,1,0,POINT (12575860.32716389 3273308.551606862),210554.7,16278.17,678.9,4366.0,3037.44,4.54,218642
南门口,112.97619499999999,28.183482,0,1号线,1,0,POINT (12575834.2000006 3272558.507608056),210554.7,16278.17,678.9,4366.0,3037.44,4.54,218642
侯家塘,112.98213700000001,28.173771000000002,0,1号线,1,0,POINT (12576493.41316373 3271329.894130545),210554.7,16278.17,678.9,4366.0,3037.44,4.54,218642
南湖路,112.98559399999999,28.166068,0,1号线,1,0,POINT (12576876.92502777 3270355.821722815),210554.7,16278.17,678.9,4366.0,3037.44,4.54,218642
黄土岭,112.98550300000001,28.160534000000002,1,1号线,1,0,POINT (12576866.88128574 3269657.018536858),210554.7,16278.17,678.9,4366.0,3037.44,4.54,218642
涂家冲,112.984784,28.153165,0,1号线,1,0,POINT (12576787.1987493 3268726.774723462),210554.7,16278.17,678.9,4366.0,3037.44,4.54,218642
铁道学院,112.987321,28.136157,0,1号线,1,0,POINT (12577068.74117264 3266578.387629861),210554.7,16278.17,678.9,4366.0,3037.44,4.54,218642
友谊路,112.986898,28.123626,0,1号线,1,0,POINT (12577021.93701302 3264996.574022744),210554.7,16278.17,678.9,4366.0,3037.44,4.54,218642
省政府·清风,112.98751200000001,28.111178000000002,0,1号线,1,0,POINT (12577090.14895459 3263425.018888425),210554.7,16278.17,678.9,4366.0,3037.44,4.54,218642
桂花坪,112.98832900000001,28.09923,0,1号线,1,0,POINT (12577180.87106368 3261916.661263697),210554.7,16278.17,678.9,4366.0,3037.44,4.54,218642
大托,112.989189,28.082555,0,1号线,1,0,POINT (12577276.40382602 3259811.915965888),210554.7,16278.17,678.9,4366.0,3037.44,4.54,218642
中信广场,112.989731,28.073694,0,1号线,1,0,POINT (12577336.59654219 3258693.558196503),210554.7,16278.17,678.9,4366.0,3037.44,4.54,218642
尚双塘,112.992268,28.0619,0,1号线,1,0,POINT (12577618.07839193 3257204.468604881),210554.7,16278.17,678.9,4366.0,3037.44,4.54,218642
梅溪湖西,112.881887,28.185907,0,2号线,1,0,POINT (12565352.66547553 3272878.39795815),210554.7,16278.17,678.9,4366.0,3037.44,4.54,218642
麓云路,112.892059,28.19084,0,2号线,1,0,POINT (12566485.39960339 3273502.26571773),210554.7,16278.17,678.9,4366.0,3037.44,4.54,218642
文化艺术中心,112.900472,28.196690000000004,0,2号线,1,0,POINT (12567421.83668591 3274241.449998127),210554.7,16278.17,678.9,4366.0,3037.44,4.54,218642
梅溪湖东,112.90818300000001,28.201674,0,2号线,1,0,POINT (12568279.79896241 3274870.913648162),210554.7,16278.17,678.9,4366.0,3037.44,4.54,218642
望城坡,112.91370400000001,28.207479,0,2号线,1,0,POINT (12568893.86671532 3275603.943638411),210554.7,16278.17,678.9,4366.0,3037.44,4.54,218642
金星路,112.92860300000001,28.206046999999998,0,2号线,1,0,POINT (12570550.28340106 3275421.40968081),210554.7,16278.17,678.9,4366.0,3037.44,4.54,218642
西湖公园,112.939929,28.202632,0,2号线,1,0,POINT (12571808.67170351 3274987.949072118),210554.7,16278.17,678.9,4366.0,3037.44,4.54,218642
溁湾镇,112.95143600000002,28.197614,1,2号线,1,0,POINT (12573086.52048851 3274351.311566299),210554.7,16278.17,678.9,4366.0,3037.44,4.54,218642
橘子洲,112.96252,28.195601,0,2号线,1,0,POINT (12574316.81769928 3274093.817182852),210554.7,16278.17,678.9,4366.0,3037.44,4.54,218642
湘江中路,112.969365,28.195218,0,2号线,1,0,POINT (12575076.36089594 3274043.220078518),210554.7,16278.17,678.9,4366.0,3037.44,4.54,218642
五一广场,112.97643300000001,28.195317,1,2号线,1,0,POINT (12575860.49639152 3274053.284442855),210554.7,16278.17,678.9,4366.0,3037.44,4.54,218642
芙蓉广场,112.98466599999999,28.194886,0,2号线,1,0,POINT (12576773.73710248 3273995.850634701),210554.7,16278.17,678.9,4366.0,3037.44,4.54,218642
迎宾路口,112.99218799999998,28.194793,0,2号线,1,0,POINT (12577608.01429456 3273981.273725417),210554.7,16278.17,678.9,4366.0,3037.44,4.54,218642
袁家岭,113.000651,28.194545,0,2号线,1,0,POINT (12578546.6099148 3273946.710912108),210554.7,16278.17,678.9,4366.0,3037.44,4.54,218642
长沙火车站,113.01098700000001,28.193633000000002,0,2号线,1,0,POINT (12579692.95423309 3273827.572851757),210554.7,16278.17,678.9,4366.0,3037.44,4.54,218642
锦泰广场,113.017587,28.191855,0,2号线,1,0,POINT (12580425.01649935 3273600.531289364),210554.7,16278.17,678.9,4366.0,3037.44,4.54,218642
万家丽广场,113.03019099999999,28.191546000000002,0,2号线,1,0,POINT (12581823.25397197 3273557.049486896),210554.7,16278.17,678.9,4366.0,3037.44,4.54,218642
人民东路,113.038701,28.184163,0,2号线,1,0,POINT (12582767.64796141 3272621.781408525),210554.7,16278.17,678.9,4366.0,3037.44,4.54,218642
长沙大道,113.04448000000001,28.168306,0,2号线,1,0,POINT (12583409.2227185 3270617.419946064),210554.7,16278.17,678.9,4366.0,3037.44,4.54,218642
沙湾公园,113.044896,28.157673,1,2号线,1,0,POINT (12583455.49866803 3269274.565472356),210554.7,16278.17,678.9,4366.0,3037.44,4.54,218642
杜花路,113.056471,28.146351,0,2号线,1,0,POINT (12584740.80731236 3267841.979191897),210554.7,16278.17,678.9,4366.0,3037.44,4.54,218642
长沙火车南站,113.06521599999999,28.146879,1,2号线,1,0,POINT (12585712.21973129 3267906.829300233),210554.7,16278.17,678.9,4366.0,3037.44,4.54,218642
光达,113.085035,28.148484000000003,1,2号线,1,0,POINT (12587915.29526654 3268106.898960984),210554.7,16278.17,678.9,4366.0,3037.44,4.54,218642
罐子岭,112.923179,28.294837,0,4号线,1,0,POINT (12569946.63031611 3286642.795511918),210554.7,16278.17,678.9,4366.0,3037.44,4.54,218642
月亮岛西,112.92954099999999,28.287271,0,4号线,1,0,POINT (12570653.8090212 3285685.453082049),210554.7,16278.17,678.9,4366.0,3037.44,4.54,218642
湘江新城,112.93370800000001,28.281703000000004,0,4号线,1,0,POINT (12571116.88402871 3284980.910508017),210554.7,16278.17,678.9,4366.0,3037.44,4.54,218642
汉王陵公园,112.947534,28.267719,0,4号线,1,0,POINT (12572652.66963382 3283210.382287336),210554.7,16278.17,678.9,4366.0,3037.44,4.54,218642
福元大桥西,112.95874099999999,28.253234999999997,0,4号线,1,0,POINT (12573896.90730595 3281376.769422535),210554.7,16278.17,678.9,4366.0,3037.44,4.54,218642
茶子山,112.95953200000001,28.242663,0,4号线,1,0,POINT (12573984.79189507 3280040.546058548),210554.7,16278.17,678.9,4366.0,3037.44,4.54,218642
观沙岭,112.952474,28.230549,0,4号线,1,0,POINT (12573201.46426764 3278511.864974684),210554.7,16278.17,678.9,4366.0,3037.44,4.54,218642
六沟垅,112.954311,28.221028999999998,0,4号线,1,0,POINT (12573405.47482647 3277308.534435013),210554.7,16278.17,678.9,4366.0,3037.44,4.54,218642
望月湖,112.95593799999999,28.206613,0,4号线,1,0,POINT (12573586.20472247 3275486.836574259),210554.7,16278.17,678.9,4366.0,3037.44,4.54,218642
溁湾镇,112.95143600000002,28.197614,1,4号线,1,0,POINT (12573086.52048851 3274351.311566299),210554.7,16278.17,678.9,4366.0,3037.44,4.54,218642
湖南师大,112.948159,28.186262,0,4号线,1,0,POINT (12572722.78722562 3272918.277153594),210554.7,16278.17,678.9,4366.0,3037.44,4.54,218642
湖南大学,112.946592,28.179689,0,4号线,1,0,POINT (12572548.84937447 3272088.485112657),210554.7,16278.17,678.9,4366.0,3037.44,4.54,218642
阜埠河,112.948425,28.165471999999998,0,4号线,1,0,POINT (12572752.50565086 3270292.553904373),210554.7,16278.17,678.9,4366.0,3037.44,4.54,218642
碧沙湖,112.96781599999998,28.164446999999996,0,4号线,1,0,POINT (12574904.76666684 3270157.40929334),210554.7,16278.17,678.9,4366.0,3037.44,4.54,218642
黄土岭,112.98550300000001,28.160534000000002,1,4号线,1,0,POINT (12576866.88128574 3269657.018536858),210554.7,16278.17,678.9,4366.0,3037.44,4.54,218642
砂子塘,112.992857,28.162338000000002,0,4号线,1,0,POINT (12577682.50293851 3269882.053013907),210554.7,16278.17,678.9,4366.0,3037.44,4.54,218642
赤岗岭,113.005298,28.159717999999998,0,4号线,1,0,POINT (12579062.30164746 3269546.444014205),210554.7,16278.17,678.9,4366.0,3037.44,4.54,218642
树木岭,113.02008300000001,28.15598,0,4号线,1,0,POINT (12580702.20871714 3269068.900380132),210554.7,16278.17,678.9,4366.0,3037.44,4.54,218642
圭塘,113.031077,28.157508,0,4号线,1,0,POINT (12581921.87000434 3269258.009519041),210554.7,16278.17,678.9,4366.0,3037.44,4.54,218642
沙湾公园,113.044896,28.157673,1,4号线,1,0,POINT (12583455.49866803 3269274.565472356),210554.7,16278.17,678.9,4366.0,3037.44,4.54,218642
粟塘,113.052403,28.157646999999997,0,4号线,1,0,POINT (12584288.95083844 3269269.281251067),210554.7,16278.17,678.9,4366.0,3037.44,4.54,218642
平阳,113.05708100000001,28.152171999999997,0,4号线,1,0,POINT (12584808.50143689 3268576.830458189),210554.7,16278.17,678.9,4366.0,3037.44,4.54,218642
长沙火车南站,113.06521599999999,28.146879,1,4号线,1,0,POINT (12585712.21973129 3267906.829300233),210554.7,16278.17,678.9,4366.0,3037.44,4.54,218642
光达,113.085035,28.148484000000003,1,4号线,1,0,POINT (12587915.29526654 3268106.898960984),210554.7,16278.17,678.9,4366.0,3037.44,4.54,218642
杜家坪,113.093776,28.141503999999998,0,4号线,1,0,POINT (12588887.7249382 3267225.165340181),210554.7,16278.17,678.9,4366.0,3037.44,4.54,218642
磁浮机场站,113.21907900000001,28.191653000000002,0,磁浮快线,1,0,POINT (12602853.99856828 3273579.104105564),210554.7,16278.17,678.9,4366.0,3037.44,4.54,218642
磁浮榔梨,113.133357,28.160767,0,磁浮快线,1,0,POINT (12593295.69234436 3269660.5169033),210554.7,16278.17,678.9,4366.0,3037.44,4.54,218642
磁浮高铁站,113.067434,28.14882,0,磁浮快线,1,0,POINT (12585958.64710481 3268151.510259424),210554.7,16278.17,678.9,4366.0,3037.44,4.54,218642
