station_na,lng,lat,f1,line,f2,f3,geometry,Cement,Steel,Gravel,Sand,Asphalt,Copper,Total
火车东站,108.41409099999998,22.839677,0,1号线,1,0,POINT (12068145.53718554 2612962.519148758),210554.7,16278.17,678.9,4366.0,3037.44,4.54,218642
佛子岭,108.424884,22.831844,0,1号线,1,0,POINT (12069348.05958237 2612017.739864454),210554.7,16278.17,678.9,4366.0,3037.44,4.54,218642
百花岭,108.42794599999999,22.818109,0,1号线,1,0,POINT (12069689.39628303 2610359.83918955),210554.7,16278.17,678.9,4366.0,3037.44,4.54,218642
埌东客运站,108.418641,22.812921,0,1号线,1,0,POINT (12068652.54688295 2609732.440921105),210554.7,16278.17,678.9,4366.0,3037.44,4.54,218642
凤岭,108.41034599999999,22.813119,0,1号线,1,0,POINT (12067728.59625481 2609755.794219677),210554.7,16278.17,678.9,4366.0,3037.44,4.54,218642
东盟商务区,108.39905900000001,22.813064,0,1号线,1,0,POINT (12066471.95805643 2609749.003421879),210554.7,16278.17,678.9,4366.0,3037.44,4.54,218642
万象城,108.392022,22.813041000000002,0,1号线,1,0,POINT (12065688.82100197 2609746.471211442),210554.7,16278.17,678.9,4366.0,3037.44,4.54,218642
会展中心,108.383728,22.812865,0,1号线,1,0,POINT (12064766.09939498 2609725.826568251),210554.7,16278.17,678.9,4366.0,3037.44,4.54,218642
金湖广场,108.37235600000001,22.812895,1,1号线,1,0,POINT (12063501.43010936 2609730.780351104),210554.7,16278.17,678.9,4366.0,3037.44,4.54,218642
南湖,108.36306699999999,22.813671,0,1号线,1,0,POINT (12062468.76534533 2609825.927622772),210554.7,16278.17,678.9,4366.0,3037.44,4.54,218642
麻村,108.347473,22.813014000000003,0,1号线,1,0,POINT (12060735.73303554 2609749.649718105),210554.7,16278.17,678.9,4366.0,3037.44,4.54,218642
民族广场,108.33635,22.813048000000002,0,1号线,1,0,POINT (12059499.85012501 2609756.213199481),210554.7,16278.17,678.9,4366.0,3037.44,4.54,218642
新民路,108.327324,22.813042000000003,0,1号线,1,0,POINT (12058497.03144785 2609757.561432471),210554.7,16278.17,678.9,4366.0,3037.44,4.54,218642
朝阳广场,108.320842,22.817093,1,1号线,1,0,POINT (12057776.83012751 2610248.117684737),210554.7,16278.17,678.9,4366.0,3037.44,4.54,218642
火车站,108.31633500000001,22.824873999999998,1,1号线,1,0,POINT (12057276.01983295 2611188.555818176),210554.7,16278.17,678.9,4366.0,3037.44,4.54,218642
白苍岭,108.307154,22.83107,0,1号线,1,0,POINT (12056255.81306986 2611938.647626017),210554.7,16278.17,678.9,4366.0,3037.44,4.54,218642
广西大学,108.29111100000001,22.831607,0,1号线,1,0,POINT (12054472.70521711 2612006.556516032),210554.7,16278.17,678.9,4366.0,3037.44,4.54,218642
鲁班路,108.28301200000001,22.834073999999998,0,1号线,1,0,POINT (12053572.2278243 2612305.689972361),210554.7,16278.17,678.9,4366.0,3037.44,4.54,218642
动物园,108.267771,22.837805,0,1号线,1,0,POINT (12051876.99825352 2612757.897870487),210554.7,16278.17,678.9,4366.0,3037.44,4.54,218642
清川,108.253119,22.840172,0,1号线,1,0,POINT (12050246.3351642 2613044.414698933),210554.7,16278.17,678.9,4366.0,3037.44,4.54,218642
民族大学,108.23301799999999,22.837229,0,1号线,1,0,POINT (12048007.65778053 2612688.441863166),210554.7,16278.17,678.9,4366.0,3037.44,4.54,218642
西乡塘客运站,108.21915600000001,22.832924,0,1号线,1,0,POINT (12046462.79858913 2612167.191505042),210554.7,16278.17,678.9,4366.0,3037.44,4.54,218642
鹏飞路,108.20228300000001,22.833056,0,1号线,1,0,POINT (12044581.37565174 2612180.41435432),210554.7,16278.17,678.9,4366.0,3037.44,4.54,218642
南职院,108.19224399999999,22.83313,0,1号线,1,0,POINT (12043461.58771884 2612187.353508838),210554.7,16278.17,678.9,4366.0,3037.44,4.54,218642
石埠,108.177596,22.826528,0,1号线,1,0,POINT (12041827.40997889 2611387.008937683),210554.7,16278.17,678.9,4366.0,3037.44,4.54,218642
西津,108.29845900000001,22.88927,0,2号线,1,0,POINT (12055289.15526409 2618968.872037467),210554.7,16278.17,678.9,4366.0,3037.44,4.54,218642
安吉客运站,108.297843,22.879757,1,2号线,1,0,POINT (12055220.74335572 2617819.968203413),210554.7,16278.17,678.9,4366.0,3037.44,4.54,218642
苏卢,108.299553,22.868884,0,2号线,1,0,POINT (12055410.86492386 2616506.445871825),210554.7,16278.17,678.9,4366.0,3037.44,4.54,218642
三十三中,108.302241,22.857976,0,2号线,1,0,POINT (12055709.671782 2615188.592634356),210554.7,16278.17,678.9,4366.0,3037.44,4.54,218642
秀厢,108.30668600000001,22.848542000000002,0,2号线,1,0,POINT (12056203.70548574 2614048.446953629),210554.7,16278.17,678.9,4366.0,3037.44,4.54,218642
明秀路,108.31274599999999,22.839235000000002,0,2号线,1,0,POINT (12056877.15187862 2612923.317599893),210554.7,16278.17,678.9,4366.0,3037.44,4.54,218642
火车站,108.31633500000001,22.824873999999998,1,2号线,1,0,POINT (12057276.01983295 2611188.555818176),210554.7,16278.17,678.9,4366.0,3037.44,4.54,218642
朝阳广场,108.320842,22.817093,1,2号线,1,0,POINT (12057776.83012751 2610248.117684737),210554.7,16278.17,678.9,4366.0,3037.44,4.54,218642
南宁剧场,108.313648,22.804174,0,2号线,1,0,POINT (12056977.57962881 2608690.100569875),210554.7,16278.17,678.9,4366.0,3037.44,4.54,218642
福建园,108.31128999999999,22.794893,0,2号线,1,0,POINT (12056715.62092315 2607570.258673019),210554.7,16278.17,678.9,4366.0,3037.44,4.54,218642
亭洪路,108.311402,22.788898,0,2号线,1,0,POINT (12056728.10061887 2606846.582414405),210554.7,16278.17,678.9,4366.0,3037.44,4.54,218642
石柱岭,108.311485,22.781518,0,2号线,1,0,POINT (12056737.36583344 2605955.768989495),210554.7,16278.17,678.9,4366.0,3037.44,4.54,218642
江南客运站,108.31212099999999,22.766625,0,2号线,1,0,POINT (12056808.12204923 2604158.115795158),210554.7,16278.17,678.9,4366.0,3037.44,4.54,218642
大沙田,108.316759,22.760811,0,2号线,1,0,POINT (12057323.4996692 2603455.412502279),210554.7,16278.17,678.9,4366.0,3037.44,4.54,218642
建设路,108.31832,22.751820000000002,0,2号线,1,0,POINT (12057496.9933521 2602370.014049828),210554.7,16278.17,678.9,4366.0,3037.44,4.54,218642
石子塘,108.324374,22.741181,0,2号线,1,0,POINT (12058169.69095137 2601084.783424866),210554.7,16278.17,678.9,4366.0,3037.44,4.54,218642
金象,108.33224399999999,22.731297,0,2号线,1,0,POINT (12059044.13001457 2599890.309042491),210554.7,16278.17,678.9,4366.0,3037.44,4.54,218642
玉洞,108.33665,22.722533,0,2号线,1,0,POINT (12059533.70548098 2598831.848284803),210554.7,16278.17,678.9,4366.0,3037.44,4.54,218642
科园大道,108.2693,22.878325,0,3号线,1,0,POINT (12052046.87633158 2617651.065591908),210554.7,16278.17,678.9,4366.0,3037.44,4.54,218642
创业路,108.283924,22.878842000000002,0,3号线,1,0,POINT (12053673.38106207 2617711.795324614),210554.7,16278.17,678.9,4366.0,3037.44,4.54,218642
安吉客运站,108.297843,22.879757,1,3号线,1,0,POINT (12055220.74335572 2617819.968203413),210554.7,16278.17,678.9,4366.0,3037.44,4.54,218642
北湖北路,108.316253,22.87557,0,3号线,1,0,POINT (12057266.61616954 2617310.422568235),210554.7,16278.17,678.9,4366.0,3037.44,4.54,218642
秀峰路,108.331253,22.878222,0,3号线,1,0,POINT (12058933.17665757 2617627.291638191),210554.7,16278.17,678.9,4366.0,3037.44,4.54,218642
邕武路,108.340209,22.875564999999998,0,3号线,1,0,POINT (12059928.24682323 2617304.346093896),210554.7,16278.17,678.9,4366.0,3037.44,4.54,218642
大鸡村,108.350972,22.872549,0,3号线,1,0,POINT (12061124.19914599 2616937.765237272),210554.7,16278.17,678.9,4366.0,3037.44,4.54,218642
兴桂路,108.356508,22.864507,0,3号线,1,0,POINT (12061739.46408547 2615965.420862675),210554.7,16278.17,678.9,4366.0,3037.44,4.54,218642
小鸡村,108.35613899999998,22.85624,0,3号线,1,0,POINT (12061698.50301571 2614967.13427074),210554.7,16278.17,678.9,4366.0,3037.44,4.54,218642
长堽路,108.356054,22.835859,0,3号线,1,0,POINT (12061689.17539439 2612506.093329056),210554.7,16278.17,678.9,4366.0,3037.44,4.54,218642
东葛路,108.36000700000001,22.830017,0,3号线,1,0,POINT (12062128.54929141 2611799.974239413),210554.7,16278.17,678.9,4366.0,3037.44,4.54,218642
滨湖路,108.36948500000001,22.824915,0,3号线,1,0,POINT (12063182.15852973 2611182.381664905),210554.7,16278.17,678.9,4366.0,3037.44,4.54,218642
金湖广场,108.37235600000001,22.812895,1,3号线,1,0,POINT (12063501.43010936 2609730.780351104),210554.7,16278.17,678.9,4366.0,3037.44,4.54,218642
埌西,108.366096,22.805989999999998,0,3号线,1,0,POINT (12062805.5131199 2608898.140949008),210554.7,16278.17,678.9,4366.0,3037.44,4.54,218642
青竹立交,108.364177,22.799170999999998,0,3号线,1,0,POINT (12062592.23398193 2608075.287503401),210554.7,16278.17,678.9,4366.0,3037.44,4.54,218642
青秀山,108.368606,22.792524,0,3号线,1,0,POINT (12063084.62539431 2607272.193850741),210554.7,16278.17,678.9,4366.0,3037.44,4.54,218642
市博物馆,108.376107,22.77511,0,3号线,1,0,POINT (12063918.73830419 2605169.222160402),210554.7,16278.17,678.9,4366.0,3037.44,4.54,218642
总部基地,108.376263,22.767619,0,3号线,1,0,POINT (12063936.12947123 2604265.091037736),210554.7,16278.17,678.9,4366.0,3037.44,4.54,218642
广西规划馆,108.37780900000001,22.757164000000003,0,3号线,1,0,POINT (12064108.11296829 2603003.130156703),210554.7,16278.17,678.9,4366.0,3037.44,4.54,218642
庆歌路,108.383394,22.750251000000002,0,3号线,1,0,POINT (12064729.31424992 2602168.280509139),210554.7,16278.17,678.9,4366.0,3037.44,4.54,218642
五象湖,108.383807,22.739034,0,3号线,1,0,POINT (12064775.3187834 2600814.660433499),210554.7,16278.17,678.9,4366.0,3037.44,4.54,218642
平良立交,108.383822,22.724615,0,3号线,1,0,POINT (12064777.07150517 2599074.82610484),210554.7,16278.17,678.9,4366.0,3037.44,4.54,218642
