station_na,lng,lat,f1,line,f2,f3,geometry,Cement,Steel,Gravel,Sand,Asphalt,Copper,Total
金安桥,116.16316699999999,39.92362,1,S1线,1,0,POINT (12930534.0087579 4854656.825876687),210554.7,16278.17,678.9,4366.0,3037.44,4.54,218642
四道桥,116.13401,39.91603,0,S1线,1,0,POINT (12927280.11430164 4853548.305713308),210554.7,16278.17,678.9,4366.0,3037.44,4.54,218642
桥户营,116.125809,39.912383,0,S1线,1,0,POINT (12926365.41291231 4853017.602318597),210554.7,16278.17,678.9,4366.0,3037.44,4.54,218642
上岸,116.122225,39.905138,0,S1线,1,0,POINT (12925965.84705869 4851965.723057471),210554.7,16278.17,678.9,4366.0,3037.44,4.54,218642
栗园庄,116.123254,39.89578,0,S1线,1,0,POINT (12926080.72264446 4850608.053874975),210554.7,16278.17,678.9,4366.0,3037.44,4.54,218642
小园,116.114443,39.890465,0,S1线,1,0,POINT (12925098.4722937 4849835.89263742),210554.7,16278.17,678.9,4366.0,3037.44,4.54,218642
石厂,116.100334,39.889378,0,S1线,1,0,POINT (12923526.39833532 4849677.425696275),210554.7,16278.17,678.9,4366.0,3037.44,4.54,218642
苹果园,116.177388,39.926727,0,1号线,1,0,POINT (12932121.51025506 4855111.658802296),210554.7,16278.17,678.9,4366.0,3037.44,4.54,218642
古城,116.19033700000001,39.90745,0,1号线,1,0,POINT (12933567.20642402 4852317.349529915),210554.7,16278.17,678.9,4366.0,3037.44,4.54,218642
八角游乐园,116.21268400000001,39.907441999999996,0,1号线,1,0,POINT (12936060.71817639 4852321.152046977),210554.7,16278.17,678.9,4366.0,3037.44,4.54,218642
八宝山,116.235948,39.90744,0,1号线,1,0,POINT (12938654.36513498 4852323.904568383),210554.7,16278.17,678.9,4366.0,3037.44,4.54,218642
玉泉路,116.25288799999998,39.907433000000005,0,1号线,1,0,POINT (12940541.17012669 4852323.34988565),210554.7,16278.17,678.9,4366.0,3037.44,4.54,218642
五棵松,116.273987,39.907455999999996,0,1号线,1,0,POINT (12942888.98668485 4852325.087327841),210554.7,16278.17,678.9,4366.0,3037.44,4.54,218642
万寿路,116.29476499999998,39.907474,0,1号线,1,0,POINT (12945198.92720286 4852324.024990702),210554.7,16278.17,678.9,4366.0,3037.44,4.54,218642
公主坟,116.309919,39.907469,1,1号线,1,0,POINT (12946882.62254934 4852319.647057403),210554.7,16278.17,678.9,4366.0,3037.44,4.54,218642
军事博物馆,116.321459,39.907422,1,1号线,1,0,POINT (12948164.43307128 4852309.719687857),210554.7,16278.17,678.9,4366.0,3037.44,4.54,218642
木樨地,116.33758300000001,39.907379,0,1号线,1,0,POINT (12949955.24786371 4852299.009916385),210554.7,16278.17,678.9,4366.0,3037.44,4.54,218642
南礼士路,116.35258300000001,39.907234,0,1号线,1,0,POINT (12951621.42801082 4852274.052115618),210554.7,16278.17,678.9,4366.0,3037.44,4.54,218642
复兴门,116.356866,39.907242,1,1号线,1,0,POINT (12952097.26710586 4852274.191990908),210554.7,16278.17,678.9,4366.0,3037.44,4.54,218642
西单,116.374072,39.907383,1,1号线,1,0,POINT (12954009.47692074 4852291.219572537),210554.7,16278.17,678.9,4366.0,3037.44,4.54,218642
天安门西,116.391278,39.907472,0,1号线,1,0,POINT (12955923.03626144 4852302.108228839),210554.7,16278.17,678.9,4366.0,3037.44,4.54,218642
天安门东,116.40121599999999,39.907779999999995,0,1号线,1,0,POINT (12957029.03511207 4852346.410910818),210554.7,16278.17,678.9,4366.0,3037.44,4.54,218642
王府井,116.411571,39.908069,0,1号线,1,0,POINT (12958182.08430083 4852388.603913993),210554.7,16278.17,678.9,4366.0,3037.44,4.54,218642
东单,116.41848,39.908325,1,1号线,1,0,POINT (12958951.78920697 4852426.311106396),210554.7,16278.17,678.9,4366.0,3037.44,4.54,218642
建国门,116.435806,39.908501,1,1号线,1,0,POINT (12960883.32986622 4852454.606554192),210554.7,16278.17,678.9,4366.0,3037.44,4.54,218642
永安里,116.450497,39.908454,0,1号线,1,0,POINT (12962522.49315297 4852451.547227641),210554.7,16278.17,678.9,4366.0,3037.44,4.54,218642
国贸,116.46184099999999,39.909104,1,1号线,1,0,POINT (12963788.9452391 4852549.549703135),210554.7,16278.17,678.9,4366.0,3037.44,4.54,218642
大望路,116.475783,39.908287,1,1号线,1,0,POINT (12965346.15711591 4852436.242112036),210554.7,16278.17,678.9,4366.0,3037.44,4.54,218642
四惠,116.495456,39.908749,1,1号线,1,0,POINT (12967544.24937834 4852511.554522421),210554.7,16278.17,678.9,4366.0,3037.44,4.54,218642
四惠东,116.51566399999999,39.908495,1,1号线,1,0,POINT (12969802.26224197 4852483.40039706),210554.7,16278.17,678.9,4366.0,3037.44,4.54,218642
积水潭,116.373126,39.948653,0,2号线,1,1,POINT (12953903.72583892 4858281.941830062),210554.7,16278.17,678.9,4366.0,3037.44,4.54,218642
鼓楼大街,116.393776,39.948972,1,2号线,1,1,POINT (12956200.39510972 4858325.921499262),210554.7,16278.17,678.9,4366.0,3037.44,4.54,218642
安定门,116.40823999999999,39.94918,0,2号线,1,1,POINT (12957810.51253311 4858355.984247277),210554.7,16278.17,678.9,4366.0,3037.44,4.54,218642
雍和宫,116.417069,39.949335999999995,1,2号线,1,1,POINT (12958793.987634 4858379.212540815),210554.7,16278.17,678.9,4366.0,3037.44,4.54,218642
东直门,116.435842,39.941626,1,2号线,1,1,POINT (12960886.87626702 4857262.680805778),210554.7,16278.17,678.9,4366.0,3037.44,4.54,218642
东四十条,116.434133,39.933801,0,2号线,1,1,POINT (12960696.38210599 4856126.320944102),210554.7,16278.17,678.9,4366.0,3037.44,4.54,218642
朝阳门,116.43458400000002,39.924499,1,2号线,1,1,POINT (12960746.81223875 4854776.154283092),210554.7,16278.17,678.9,4366.0,3037.44,4.54,218642
建国门,116.435806,39.908501,1,2号线,1,1,POINT (12960883.32986622 4852454.606554192),210554.7,16278.17,678.9,4366.0,3037.44,4.54,218642
北京站,116.427287,39.904983,0,2号线,1,1,POINT (12959933.43083624 4851942.516207659),210554.7,16278.17,678.9,4366.0,3037.44,4.54,218642
崇文门,116.417093,39.901063,1,2号线,1,1,POINT (12958797.34694871 4851372.417342935),210554.7,16278.17,678.9,4366.0,3037.44,4.54,218642
前门,116.39793700000001,39.900192,0,2号线,1,1,POINT (12956664.15666089 4851245.423253465),210554.7,16278.17,678.9,4366.0,3037.44,4.54,218642
和平门,116.38420900000001,39.900098,0,2号线,1,1,POINT (12955136.7758511 4851232.751299809),210554.7,16278.17,678.9,4366.0,3037.44,4.54,218642
宣武门,116.37431399999998,39.899765,1,2号线,1,1,POINT (12954036.48843272 4851185.784173906),210554.7,16278.17,678.9,4366.0,3037.44,4.54,218642
长椿街,116.363355,39.899433,0,2号线,1,1,POINT (12952818.40987006 4851139.652158035),210554.7,16278.17,678.9,4366.0,3037.44,4.54,218642
复兴门,116.356866,39.907242,1,2号线,1,1,POINT (12952097.26710586 4852274.191990908),210554.7,16278.17,678.9,4366.0,3037.44,4.54,218642
阜成门,116.35600900000001,39.923686,0,2号线,1,1,POINT (12952001.81858019 4854660.888521803),210554.7,16278.17,678.9,4366.0,3037.44,4.54,218642
车公庄,116.35435700000001,39.932396999999995,1,2号线,1,1,POINT (12951818.1572939 4855925.730766501),210554.7,16278.17,678.9,4366.0,3037.44,4.54,218642
西直门,116.355426,39.940474,1,2号线,1,1,POINT (12951936.80891548 4857098.04269263),210554.7,16278.17,678.9,4366.0,3037.44,4.54,218642
天宫院,116.31993200000001,39.670342,0,4号线大兴线,1,0,POINT (12947998.12769405 4817968.06832246),210554.7,16278.17,678.9,4366.0,3037.44,4.54,218642
生物医药基地,116.32166200000002,39.68651,0,4号线大兴线,1,0,POINT (12948190.05359368 4820305.682699305),210554.7,16278.17,678.9,4366.0,3037.44,4.54,218642
义和庄,116.319079,39.712387,0,4号线大兴线,1,0,POINT (12947902.80261007 4824049.721757248),210554.7,16278.17,678.9,4366.0,3037.44,4.54,218642
黄村火车站,116.33261100000001,39.722966,0,4号线大兴线,1,0,POINT (12949405.60472709 4825576.746788937),210554.7,16278.17,678.9,4366.0,3037.44,4.54,218642
黄村西大街,116.332631,39.731769,0,4号线大兴线,1,0,POINT (12949407.70355046 4826850.712253861),210554.7,16278.17,678.9,4366.0,3037.44,4.54,218642
清源路,116.33251299999999,39.742724,0,4号线大兴线,1,0,POINT (12949394.4453898 4828436.391644466),210554.7,16278.17,678.9,4366.0,3037.44,4.54,218642
枣园,116.332204,39.753458,0,4号线大兴线,1,0,POINT (12949359.97685162 4829990.391799378),210554.7,16278.17,678.9,4366.0,3037.44,4.54,218642
高米店南,116.33160500000001,39.763489,0,4号线大兴线,1,0,POINT (12949293.3093237 4831442.930736221),210554.7,16278.17,678.9,4366.0,3037.44,4.54,218642
高米店北,116.33078700000002,39.773547,0,4号线大兴线,1,0,POINT (12949202.31835759 4832899.661391334),210554.7,16278.17,678.9,4366.0,3037.44,4.54,218642
西红门,116.32868899999998,39.7898,0,4号线大兴线,1,0,POINT (12948969.07874008 4835254.316979248),210554.7,16278.17,678.9,4366.0,3037.44,4.54,218642
新宫,116.365549,39.812591999999995,0,4号线大兴线,1,0,POINT (12953063.45707135 4838547.197355895),210554.7,16278.17,678.9,4366.0,3037.44,4.54,218642
公益西桥,116.370796,39.836135,0,4号线大兴线,1,0,POINT (12953646.30968212 4841958.343817607),210554.7,16278.17,678.9,4366.0,3037.44,4.54,218642
角门西,116.371154,39.84585,1,4号线大兴线,1,0,POINT (12953685.96712904 4843366.647335039),210554.7,16278.17,678.9,4366.0,3037.44,4.54,218642
马家堡,116.37136100000001,39.853109,0,4号线大兴线,1,0,POINT (12953708.87459331 4844419.069166431),210554.7,16278.17,678.9,4366.0,3037.44,4.54,218642
北京南站,116.37896299999998,39.865029,1,4号线大兴线,1,0,POINT (12954553.87321553 4846146.363438565),210554.7,16278.17,678.9,4366.0,3037.44,4.54,218642
陶然亭,116.37438300000001,39.87847,0,4号线大兴线,1,0,POINT (12954044.46066146 4848096.461473458),210554.7,16278.17,678.9,4366.0,3037.44,4.54,218642
菜市口,116.374425,39.889296,1,4号线大兴线,1,0,POINT (12954048.9767936 4849666.884054509),210554.7,16278.17,678.9,4366.0,3037.44,4.54,218642
宣武门,116.37431399999998,39.899765,1,4号线大兴线,1,0,POINT (12954036.48843272 4851185.784173906),210554.7,16278.17,678.9,4366.0,3037.44,4.54,218642
西单,116.374072,39.907383,1,4号线大兴线,1,0,POINT (12954009.47692074 4852291.219572537),210554.7,16278.17,678.9,4366.0,3037.44,4.54,218642
灵境胡同,116.373746,39.915912,0,4号线大兴线,1,0,POINT (12953973.11444435 4853529.005588929),210554.7,16278.17,678.9,4366.0,3037.44,4.54,218642
西四,116.373332,39.924206,0,4号线大兴线,1,0,POINT (12953926.97293405 4854732.852665577),210554.7,16278.17,678.9,4366.0,3037.44,4.54,218642
平安里,116.372883,39.933949,1,4号线大兴线,1,0,POINT (12953876.92082054 4856147.199811279),210554.7,16278.17,678.9,4366.0,3037.44,4.54,218642
新街口,116.36774199999999,39.940667,0,4号线大兴线,1,0,POINT (12953305.37821206 4857123.413123554),210554.7,16278.17,678.9,4366.0,3037.44,4.54,218642
西直门,116.355426,39.940474,1,4号线大兴线,1,0,POINT (12951936.80891548 4857098.04269263),210554.7,16278.17,678.9,4366.0,3037.44,4.54,218642
动物园,116.339031,39.93825,0,4号线大兴线,1,0,POINT (12950115.6406721 4856779.370653019),210554.7,16278.17,678.9,4366.0,3037.44,4.54,218642
国家图书馆,116.32518999999999,39.943114,1,4号线大兴线,1,0,POINT (12948578.32114772 4857489.371462301),210554.7,16278.17,678.9,4366.0,3037.44,4.54,218642
魏公村,116.32321999999999,39.957904,0,4号线大兴线,1,0,POINT (12948359.31497078 4859637.479779419),210554.7,16278.17,678.9,4366.0,3037.44,4.54,218642
人民大学,116.321367,39.966956,0,4号线大兴线,1,0,POINT (12948153.38142633 4860952.604760942),210554.7,16278.17,678.9,4366.0,3037.44,4.54,218642
海淀黄庄,116.31756399999999,39.975996,1,4号线大兴线,1,0,POINT (12947730.85734201 4862266.691345117),210554.7,16278.17,678.9,4366.0,3037.44,4.54,218642
中关村,116.31646699999999,39.983990999999996,0,4号线大兴线,1,0,POINT (12947608.89874811 4863428.392066753),210554.7,16278.17,678.9,4366.0,3037.44,4.54,218642
北京大学东门,116.31584199999999,39.992212,0,4号线大兴线,1,0,POINT (12947539.36245721 4864622.934698496),210554.7,16278.17,678.9,4366.0,3037.44,4.54,218642
圆明园,116.31018600000002,39.999662,0,4号线大兴线,1,0,POINT (12946910.99456236 4865706.922093541),210554.7,16278.17,678.9,4366.0,3037.44,4.54,218642
西苑,116.290908,39.998258,1,4号线大兴线,1,0,POINT (12944769.01074928 4865507.455940211),210554.7,16278.17,678.9,4366.0,3037.44,4.54,218642
北宫门,116.277647,40.002373,0,4号线大兴线,1,0,POINT (12943294.70264581 4866107.755389131),210554.7,16278.17,678.9,4366.0,3037.44,4.54,218642
安河桥北,116.26995600000001,40.012195,0,4号线大兴线,1,0,POINT (12942439.16365108 4867536.121545582),210554.7,16278.17,678.9,4366.0,3037.44,4.54,218642
宋家庄,116.42836799999999,39.845849,1,5号线,1,0,POINT (12960054.78451075 4843365.743614041),210554.7,16278.17,678.9,4366.0,3037.44,4.54,218642
刘家窑,116.422119,39.857521000000006,0,5号线,1,0,POINT (12959358.0386854 4845057.16434243),210554.7,16278.17,678.9,4366.0,3037.44,4.54,218642
蒲黄榆,116.42371999999999,39.865621000000004,1,5号线,1,0,POINT (12959536.36570289 4846231.979421153),210554.7,16278.17,678.9,4366.0,3037.44,4.54,218642
天坛东门,116.420833,39.882558,0,5号线,1,0,POINT (12959214.3630724 4848688.148744013),210554.7,16278.17,678.9,4366.0,3037.44,4.54,218642
磁器口,116.41994,39.893172,1,5号线,1,0,POINT (12959114.69634714 4850227.812441533),210554.7,16278.17,678.9,4366.0,3037.44,4.54,218642
崇文门,116.417093,39.901063,1,5号线,1,0,POINT (12958797.34694871 4851372.417342935),210554.7,16278.17,678.9,4366.0,3037.44,4.54,218642
东单,116.41848,39.908325,1,5号线,1,0,POINT (12958951.78920697 4852426.311106396),210554.7,16278.17,678.9,4366.0,3037.44,4.54,218642
灯市口,116.41778300000001,39.917113,0,5号线,1,0,POINT (12958874.00040759 4853701.579487879),210554.7,16278.17,678.9,4366.0,3037.44,4.54,218642
东四,116.417493,39.92437,1,5号线,1,0,POINT (12958841.58469234 4854754.831527397),210554.7,16278.17,678.9,4366.0,3037.44,4.54,218642
张自忠路,116.417156,39.933592,0,5号线,1,0,POINT (12958803.90481326 4856093.441879289),210554.7,16278.17,678.9,4366.0,3037.44,4.54,218642
北新桥,116.41688400000001,39.940782,0,5号线,1,0,POINT (12958773.4966436 4857137.224736753),210554.7,16278.17,678.9,4366.0,3037.44,4.54,218642
雍和宫,116.417069,39.949335999999995,1,5号线,1,0,POINT (12958793.987634 4858379.212540815),210554.7,16278.17,678.9,4366.0,3037.44,4.54,218642
和平里北街,116.418504,39.958734,0,5号线,1,0,POINT (12958953.74776673 4859744.046148558),210554.7,16278.17,678.9,4366.0,3037.44,4.54,218642
和平西桥,116.417975,39.968385999999995,0,5号线,1,0,POINT (12958894.66562449 4861145.762584478),210554.7,16278.17,678.9,4366.0,3037.44,4.54,218642
惠新西街南口,116.41753700000001,39.977121000000004,1,5号线,1,0,POINT (12958845.73765953 4862414.482868384),210554.7,16278.17,678.9,4366.0,3037.44,4.54,218642
惠新西街北口,116.417028,39.987836,0,5号线,1,0,POINT (12958788.87187218 4863971.014090681),210554.7,16278.17,678.9,4366.0,3037.44,4.54,218642
大屯路东,116.417377,40.003840999999994,1,5号线,1,0,POINT (12958827.52974212 4866296.562369704),210554.7,16278.17,678.9,4366.0,3037.44,4.54,218642
北苑路北,116.418089,40.030436,0,5号线,1,0,POINT (12958906.48455081 4870162.057804951),210554.7,16278.17,678.9,4366.0,3037.44,4.54,218642
立水桥南,116.414496,40.041956,0,5号线,1,0,POINT (12958506.00673434 4871836.560542172),210554.7,16278.17,678.9,4366.0,3037.44,4.54,218642
立水桥,116.41235,40.053032,1,5号线,1,0,POINT (12958266.79140901 4873446.943436187),210554.7,16278.17,678.9,4366.0,3037.44,4.54,218642
天通苑南,116.41266100000001,40.066458000000004,0,5号线,1,0,POINT (12958301.24217311 4875399.547878822),210554.7,16278.17,678.9,4366.0,3037.44,4.54,218642
天通苑,116.41275900000001,40.075222,0,5号线,1,0,POINT (12958312.03335199 4876674.331843571),210554.7,16278.17,678.9,4366.0,3037.44,4.54,218642
天通苑北,116.412888,40.083667999999996,0,5号线,1,0,POINT (12958326.28228106 4877903.013647025),210554.7,16278.17,678.9,4366.0,3037.44,4.54,218642
潞城,116.74743400000001,39.902652,0,6号线,1,0,POINT (12995587.89408647 4851628.007153172),210554.7,16278.17,678.9,4366.0,3037.44,4.54,218642
东夏园,116.73385,39.903147,0,6号线,1,0,POINT (12994077.12793646 4851700.570833362),210554.7,16278.17,678.9,4366.0,3037.44,4.54,218642
郝家府,116.717826,39.903195000000004,0,6号线,1,0,POINT (12992296.18706402 4851709.629581655),210554.7,16278.17,678.9,4366.0,3037.44,4.54,218642
北运河东,116.70705600000001,39.903268,0,6号线,1,0,POINT (12991099.8123869 4851722.278350648),210554.7,16278.17,678.9,4366.0,3037.44,4.54,218642
北运河西,116.68835800000001,39.903024,0,6号线,1,0,POINT (12989023.64999384 4851691.368073724),210554.7,16278.17,678.9,4366.0,3037.44,4.54,218642
通州北关,116.66113100000001,39.917962,0,6号线,1,0,POINT (12986001.07991253 4853866.625628204),210554.7,16278.17,678.9,4366.0,3037.44,4.54,218642
物资学院路,116.639316,39.926801,0,6号线,1,0,POINT (12983578.73519797 4855155.002998293),210554.7,16278.17,678.9,4366.0,3037.44,4.54,218642
草房,116.615574,39.924477,0,6号线,1,0,POINT (12980940.55168876 4854821.657904265),210554.7,16278.17,678.9,4366.0,3037.44,4.54,218642
常营,116.599722,39.925696,0,6号线,1,0,POINT (12979177.34457397 4854999.590411562),210554.7,16278.17,678.9,4366.0,3037.44,4.54,218642
黄渠,116.57826599999999,39.924201000000004,0,6号线,1,0,POINT (12976788.27002819 4854781.417645578),210554.7,16278.17,678.9,4366.0,3037.44,4.54,218642
褡裢坡,116.563961,39.924021,0,6号线,1,0,POINT (12975193.73985111 4854752.856026868),210554.7,16278.17,678.9,4366.0,3037.44,4.54,218642
青年路,116.517429,39.923168,0,6号线,1,0,POINT (12969999.25345912 4854613.629418438),210554.7,16278.17,678.9,4366.0,3037.44,4.54,218642
十里堡,116.502045,39.923076,0,6号线,1,0,POINT (12968280.32769958 4854593.69363655),210554.7,16278.17,678.9,4366.0,3037.44,4.54,218642
金台路,116.47811499999999,39.923556,1,6号线,1,0,POINT (12965606.46586321 4854653.16945614),210554.7,16278.17,678.9,4366.0,3037.44,4.54,218642
呼家楼,116.46161799999999,39.923337,1,6号线,1,0,POINT (12963763.84384947 4854615.112640088),210554.7,16278.17,678.9,4366.0,3037.44,4.54,218642
东大桥,116.45165700000001,39.923054,0,6号线,1,0,POINT (12962651.76409034 4854570.783176039),210554.7,16278.17,678.9,4366.0,3037.44,4.54,218642
朝阳门,116.43458400000002,39.924499,1,6号线,1,0,POINT (12960746.81223875 4854776.154283092),210554.7,16278.17,678.9,4366.0,3037.44,4.54,218642
东四,116.417493,39.92437,1,6号线,1,0,POINT (12958841.58469234 4854754.831527397),210554.7,16278.17,678.9,4366.0,3037.44,4.54,218642
南锣鼓巷,116.404192,39.933848,1,6号线,1,0,POINT (12957359.98099615 4856129.924727573),210554.7,16278.17,678.9,4366.0,3037.44,4.54,218642
北海北,116.386829,39.933246999999994,0,6号线,1,0,POINT (12955427.72565828 4856043.436306387),210554.7,16278.17,678.9,4366.0,3037.44,4.54,218642
平安里,116.372883,39.933949,1,6号线,1,0,POINT (12953876.92082054 4856147.199811279),210554.7,16278.17,678.9,4366.0,3037.44,4.54,218642
车公庄,116.35435700000001,39.932396999999995,1,6号线,1,0,POINT (12951818.1572939 4855925.730766501),210554.7,16278.17,678.9,4366.0,3037.44,4.54,218642
车公庄西,116.344082,39.932466,0,6号线,1,0,POINT (12950676.74695412 4855938.345126702),210554.7,16278.17,678.9,4366.0,3037.44,4.54,218642
白石桥南,116.32568,39.933021999999994,1,6号线,1,0,POINT (12948632.88432555 4856024.10778197),210554.7,16278.17,678.9,4366.0,3037.44,4.54,218642
花园桥,116.31068300000001,39.93234,0,6号线,1,0,POINT (12946967.14432231 4855929.184734109),210554.7,16278.17,678.9,4366.0,3037.44,4.54,218642
慈寿寺,116.29546699999999,39.933268,1,6号线,1,0,POINT (12945276.58069144 4856067.597664959),210554.7,16278.17,678.9,4366.0,3037.44,4.54,218642
海淀五路居,116.276531,39.932584000000006,0,6号线,1,0,POINT (12943171.56695184 4855971.786406592),210554.7,16278.17,678.9,4366.0,3037.44,4.54,218642
田村,116.25291399999999,39.929503000000004,0,6号线,1,0,POINT (12940543.75951887 4855526.489013631),210554.7,16278.17,678.9,4366.0,3037.44,4.54,218642
廖公庄,116.22729199999999,39.932421999999995,0,6号线,1,0,POINT (12937689.29513639 4855948.929666262),210554.7,16278.17,678.9,4366.0,3037.44,4.54,218642
西黄村,116.20693200000001,39.933605,0,6号线,1,0,POINT (12935418.69877826 4856117.323000367),210554.7,16278.17,678.9,4366.0,3037.44,4.54,218642
杨庄,116.187004,39.92785,0,6号线,1,0,POINT (12933194.90157131 4855277.22104219),210554.7,16278.17,678.9,4366.0,3037.44,4.54,218642
金安桥,116.16316699999999,39.92362,1,6号线,1,0,POINT (12930534.0087579 4854656.825876687),210554.7,16278.17,678.9,4366.0,3037.44,4.54,218642
花庄,116.695495,39.856722,1,7号线,1,0,POINT (12989816.65454864 4844973.314038069),210554.7,16278.17,678.9,4366.0,3037.44,4.54,218642
高楼金,116.68433999999999,39.863153999999994,0,7号线,1,0,POINT (12988578.15132695 4845908.9127077),210554.7,16278.17,678.9,4366.0,3037.44,4.54,218642
群芳,116.67079199999999,39.863515,0,7号线,1,0,POINT (12987074.25483999 4845964.998958666),210554.7,16278.17,678.9,4366.0,3037.44,4.54,218642
万盛东,116.657379,39.863490999999996,0,7号线,1,0,POINT (12985585.29921596 4845965.194615982),210554.7,16278.17,678.9,4366.0,3037.44,4.54,218642
万盛西,116.63216000000001,39.863328,0,7号线,1,0,POINT (12982784.69571701 4845947.459077946),210554.7,16278.17,678.9,4366.0,3037.44,4.54,218642
黑庄户,116.59911899999999,39.858725,0,7号线,1,0,POINT (12979111.14495205 4845283.482841212),210554.7,16278.17,678.9,4366.0,3037.44,4.54,218642
郎辛庄,116.569826,39.856496,0,7号线,1,0,POINT (12975848.56338622 4844957.806707168),210554.7,16278.17,678.9,4366.0,3037.44,4.54,218642
黄厂,116.55375900000001,39.848979,0,7号线,1,0,POINT (12974056.79035593 4843864.235758195),210554.7,16278.17,678.9,4366.0,3037.44,4.54,218642
焦化厂,116.537247,39.855488,0,7号线,1,0,POINT (12972213.69610159 4844802.787334366),210554.7,16278.17,678.9,4366.0,3037.44,4.54,218642
双合,116.52683600000002,39.859691,0,7号线,1,0,POINT (12971050.97411507 4845408.35221942),210554.7,16278.17,678.9,4366.0,3037.44,4.54,218642
垡头,116.511821,39.860728,0,7号线,1,0,POINT (12969373.54251476 4845552.557205843),210554.7,16278.17,678.9,4366.0,3037.44,4.54,218642
欢乐谷景区,116.50006699999999,39.866505,0,7号线,1,0,POINT (12968060.08128908 4846385.251026141),210554.7,16278.17,678.9,4366.0,3037.44,4.54,218642
南楼梓庄,116.501084,39.874578,0,7号线,1,0,POINT (12968173.61250144 4847556.54018348),210554.7,16278.17,678.9,4366.0,3037.44,4.54,218642
化工,116.50343899999999,39.887369,0,7号线,1,0,POINT (12968436.58942886 4849412.960984111),210554.7,16278.17,678.9,4366.0,3037.44,4.54,218642
百子湾,116.497768,39.89253,0,7号线,1,0,POINT (12967802.82408765 4850159.226000314),210554.7,16278.17,678.9,4366.0,3037.44,4.54,218642
大郊亭,116.48793500000001,39.893183,0,7号线,1,0,POINT (12966704.0656971 4850249.725405406),210554.7,16278.17,678.9,4366.0,3037.44,4.54,218642
九龙山,116.478695,39.893221999999994,1,7号线,1,0,POINT (12965671.68643594 4850251.526185118),210554.7,16278.17,678.9,4366.0,3037.44,4.54,218642
双井,116.46183400000001,39.893512,1,7号线,1,0,POINT (12963788.38241001 4850287.172200135),210554.7,16278.17,678.9,4366.0,3037.44,4.54,218642
广渠门外,116.448998,39.893648,0,7号线,1,0,POINT (12962355.39664673 4850302.789979542),210554.7,16278.17,678.9,4366.0,3037.44,4.54,218642
广渠门内,116.433877,39.893673,0,7号线,1,0,POINT (12960668.39980757 4850302.695119431),210554.7,16278.17,678.9,4366.0,3037.44,4.54,218642
磁器口,116.41994,39.893172,1,7号线,1,0,POINT (12959114.69634714 4850227.812441533),210554.7,16278.17,678.9,4366.0,3037.44,4.54,218642
桥湾,116.408464,39.892725,0,7号线,1,0,POINT (12957836.25987857 4850162.096112611),210554.7,16278.17,678.9,4366.0,3037.44,4.54,218642
珠市口,116.398104,39.891267,1,7号线,1,0,POINT (12956682.87049526 4849950.522963061),210554.7,16278.17,678.9,4366.0,3037.44,4.54,218642
虎坊桥,116.384596,39.889486,0,7号线,1,0,POINT (12955179.96956204 4849693.07413095),210554.7,16278.17,678.9,4366.0,3037.44,4.54,218642
菜市口,116.374425,39.889296,1,7号线,1,0,POINT (12954048.9767936 4849666.884054509),210554.7,16278.17,678.9,4366.0,3037.44,4.54,218642
广安门内,116.35823899999998,39.889418,0,7号线,1,0,POINT (12952250.06953204 4849687.75698451),210554.7,16278.17,678.9,4366.0,3037.44,4.54,218642
达官营,116.336455,39.889884,0,7号线,1,0,POINT (12949830.20975359 4849760.92180894),210554.7,16278.17,678.9,4366.0,3037.44,4.54,218642
湾子,116.327753,39.889953999999996,0,7号线,1,0,POINT (12948863.72389208 4849773.489493135),210554.7,16278.17,678.9,4366.0,3037.44,4.54,218642
北京西站,116.32121799999999,39.894706,1,7号线,1,0,POINT (12948137.8434619 4850464.719900851),210554.7,16278.17,678.9,4366.0,3037.44,4.54,218642
中国美术馆,116.410803,39.923705,0,8号线,1,0,POINT (12958096.32067305 4854657.806506332),210554.7,16278.17,678.9,4366.0,3037.44,4.54,218642
南锣鼓巷,116.404192,39.933848,1,8号线,1,0,POINT (12957359.98099615 4856129.924727573),210554.7,16278.17,678.9,4366.0,3037.44,4.54,218642
什刹海,116.39621899999999,39.937583000000004,0,8号线,1,0,POINT (12956472.42072214 4856672.260078194),210554.7,16278.17,678.9,4366.0,3037.44,4.54,218642
鼓楼大街,116.393776,39.948972,1,8号线,1,0,POINT (12956200.39510972 4858325.921499262),210554.7,16278.17,678.9,4366.0,3037.44,4.54,218642
安德里北街,116.395145,39.957227,0,8号线,1,0,POINT (12956352.61945136 4859524.551514992),210554.7,16278.17,678.9,4366.0,3037.44,4.54,218642
安华桥,116.394655,39.968507,0,8号线,1,0,POINT (12956297.93073541 4861162.764852156),210554.7,16278.17,678.9,4366.0,3037.44,4.54,218642
北土城,116.39419299999999,39.976953,1,8号线,1,0,POINT (12956246.39948415 4862389.573980218),210554.7,16278.17,678.9,4366.0,3037.44,4.54,218642
奥体中心,116.393759,39.985837,0,8号线,1,0,POINT (12956197.9789195 4863680.165358947),210554.7,16278.17,678.9,4366.0,3037.44,4.54,218642
奥林匹克公园,116.39175800000001,40.002207,1,8号线,1,0,POINT (12955975.09530172 4866058.773799182),210554.7,16278.17,678.9,4366.0,3037.44,4.54,218642
森林公园南门,116.3926,40.010121999999996,0,8号线,1,0,POINT (12956068.66866067 4867208.935461052),210554.7,16278.17,678.9,4366.0,3037.44,4.54,218642
林萃桥,116.372998,40.021906,0,8号线,1,0,POINT (12953888.45586194 4868923.936715719),210554.7,16278.17,678.9,4366.0,3037.44,4.54,218642
永泰庄,116.35458,40.037728,0,8号线,1,0,POINT (12951841.44160903 4871227.792697634),210554.7,16278.17,678.9,4366.0,3037.44,4.54,218642
西小口,116.351644,40.046873,0,8号线,1,0,POINT (12951515.13801285 4872558.161765641),210554.7,16278.17,678.9,4366.0,3037.44,4.54,218642
育新,116.347328,40.060039,0,8号线,1,0,POINT (12951035.50486516 4874473.854913811),210554.7,16278.17,678.9,4366.0,3037.44,4.54,218642
霍营,116.36028600000002,40.071857,1,8号线,1,0,POINT (12952474.93348614 4876189.613821688),210554.7,16278.17,678.9,4366.0,3037.44,4.54,218642
回龙观东大街,116.363025,40.081175,0,8号线,1,0,POINT (12952779.16053375 4877544.493045066),210554.7,16278.17,678.9,4366.0,3037.44,4.54,218642
平西府,116.350425,40.090607,0,8号线,1,0,POINT (12951379.09945801 4878919.656761989),210554.7,16278.17,678.9,4366.0,3037.44,4.54,218642
育知路,116.32699199999999,40.087863,0,8号线,1,0,POINT (12948776.42286872 4878526.754136698),210554.7,16278.17,678.9,4366.0,3037.44,4.54,218642
朱辛庄,116.313698,40.104296999999995,1,8号线,1,0,POINT (12947299.64204831 4880921.700077066),210554.7,16278.17,678.9,4366.0,3037.44,4.54,218642
珠市口,116.398104,39.891267,1,8号线南段,1,0,POINT (12956682.87049526 4849950.522963061),210554.7,16278.17,678.9,4366.0,3037.44,4.54,218642
天桥,116.39871200000002,39.88192,0,8号线南段,1,0,POINT (12956750.67532828 4848594.568613137),210554.7,16278.17,678.9,4366.0,3037.44,4.54,218642
永定门外,116.399369,39.867435,1,8号线南段,1,0,POINT (12956824.00927849 4846493.634532218),210554.7,16278.17,678.9,4366.0,3037.44,4.54,218642
木樨园,116.39983899999999,39.859262,0,8号线南段,1,0,POINT (12956876.44092346 4845308.405058928),210554.7,16278.17,678.9,4366.0,3037.44,4.54,218642
海户屯,116.400301,39.851805,0,8号线南段,1,0,POINT (12956927.97321665 4844227.13490569),210554.7,16278.17,678.9,4366.0,3037.44,4.54,218642
大红门南,116.401045,39.836715000000005,0,8号线南段,1,0,POINT (12957011.006552 4842039.448547557),210554.7,16278.17,678.9,4366.0,3037.44,4.54,218642
和义,116.402073,39.814838,0,8号线南段,1,0,POINT (12957125.75526488 4838868.694485903),210554.7,16278.17,678.9,4366.0,3037.44,4.54,218642
东高地,116.40942700000001,39.805074,0,8号线南段,1,0,POINT (12957944.74818583 4837454.033612359),210554.7,16278.17,678.9,4366.0,3037.44,4.54,218642
火箭万源,116.418627,39.799287,0,8号线南段,1,0,POINT (12958969.71198297 4836616.273167829),210554.7,16278.17,678.9,4366.0,3037.44,4.54,218642
五福堂,116.423903,39.785046,0,8号线南段,1,0,POINT (12959557.90109396 4834553.933216196),210554.7,16278.17,678.9,4366.0,3037.44,4.54,218642
德茂,116.441617,39.772709000000006,0,8号线南段,1,0,POINT (12961533.46856659 4832770.562263015),210554.7,16278.17,678.9,4366.0,3037.44,4.54,218642
瀛海,116.448958,39.760694,0,8号线南段,1,0,POINT (12962352.79997939 4831032.679987064),210554.7,16278.17,678.9,4366.0,3037.44,4.54,218642
郭公庄,116.30188899999999,39.814322,1,9号线,1,0,POINT (12945991.8207823 4838814.277528564),210554.7,16278.17,678.9,4366.0,3037.44,4.54,218642
丰台科技园,116.29717600000001,39.825233000000004,0,9号线,1,0,POINT (12945467.99092375 4840396.626806695),210554.7,16278.17,678.9,4366.0,3037.44,4.54,218642
科怡路,116.297432,39.83248,0,9号线,1,0,POINT (12945496.337498 4841446.96511922),210554.7,16278.17,678.9,4366.0,3037.44,4.54,218642
丰台南路,116.296748,39.840444,0,9号线,1,0,POINT (12945420.22002642 4842601.57097607),210554.7,16278.17,678.9,4366.0,3037.44,4.54,218642
丰台东大街,116.293857,39.855111,0,9号线,1,0,POINT (12945098.74646841 4844728.67630342),210554.7,16278.17,678.9,4366.0,3037.44,4.54,218642
七里庄,116.294292,39.866772999999995,1,9号线,1,0,POINT (12945146.927313 4846419.709303805),210554.7,16278.17,678.9,4366.0,3037.44,4.54,218642
六里桥,116.30280800000001,39.880239,1,9号线,1,0,POINT (12946093.0115452 4848370.840290965),210554.7,16278.17,678.9,4366.0,3037.44,4.54,218642
六里桥东,116.315142,39.886886,0,9号线,1,0,POINT (12947463.08227275 4849331.882930911),210554.7,16278.17,678.9,4366.0,3037.44,4.54,218642
北京西站,116.32121799999999,39.894706,1,9号线,1,0,POINT (12948137.8434619 4850464.719900851),210554.7,16278.17,678.9,4366.0,3037.44,4.54,218642
军事博物馆,116.321459,39.907422,1,9号线,1,0,POINT (12948164.43307128 4852309.719687857),210554.7,16278.17,678.9,4366.0,3037.44,4.54,218642
白堆子,116.32576200000001,39.923818,0,9号线,1,0,POINT (12948642.12057917 4854688.064271424),210554.7,16278.17,678.9,4366.0,3037.44,4.54,218642
白石桥南,116.32568,39.933021999999994,1,9号线,1,0,POINT (12948632.88432555 4856024.10778197),210554.7,16278.17,678.9,4366.0,3037.44,4.54,218642
国家图书馆,116.32518999999999,39.943114,1,9号线,1,0,POINT (12948578.32114772 4857489.371462301),210554.7,16278.17,678.9,4366.0,3037.44,4.54,218642
巴沟,116.293727,39.974179,1,10号线,1,1,POINT (12945082.64518962 4862008.683452954),210554.7,16278.17,678.9,4366.0,3037.44,4.54,218642
苏州街,116.30633200000001,39.975642,0,10号线,1,1,POINT (12946483.19337642 4862218.23107733),210554.7,16278.17,678.9,4366.0,3037.44,4.54,218642
海淀黄庄,116.31756399999999,39.975996,1,10号线,1,1,POINT (12947730.85734201 4862266.691345117),210554.7,16278.17,678.9,4366.0,3037.44,4.54,218642
知春里,116.328709,39.976334,0,10号线,1,1,POINT (12948968.68970384 4862312.702952998),210554.7,16278.17,678.9,4366.0,3037.44,4.54,218642
知春路,116.33996,39.976476,1,10号线,1,1,POINT (12950218.28577971 4862330.223820257),210554.7,16278.17,678.9,4366.0,3037.44,4.54,218642
西土城,116.354098,39.976549,0,10号线,1,1,POINT (12951788.7589777 4862337.186622347),210554.7,16278.17,678.9,4366.0,3037.44,4.54,218642
牡丹园,116.369844,39.976603000000004,0,10号线,1,1,POINT (12953538.50257244 4862341.669641085),210554.7,16278.17,678.9,4366.0,3037.44,4.54,218642
健德门,116.381353,39.976723,0,10号线,1,1,POINT (12954818.05964049 4862357.317457855),210554.7,16278.17,678.9,4366.0,3037.44,4.54,218642
北土城,116.39419299999999,39.976953,1,10号线,1,1,POINT (12956246.39948415 4862389.573980218),210554.7,16278.17,678.9,4366.0,3037.44,4.54,218642
安贞门,116.40595400000001,39.977005,0,10号线,1,1,POINT (12957555.55531455 4862396.944082061),210554.7,16278.17,678.9,4366.0,3037.44,4.54,218642
惠新西街南口,116.41753700000001,39.977121000000004,1,10号线,1,1,POINT (12958845.73765953 4862414.482868384),210554.7,16278.17,678.9,4366.0,3037.44,4.54,218642
芍药居,116.435914,39.977636,1,10号线,1,1,POINT (12960894.39635263 4862492.167763297),210554.7,16278.17,678.9,4366.0,3037.44,4.54,218642
太阳宫,116.447469,39.972678,0,10号线,1,1,POINT (12962183.63921324 4861774.856941694),210554.7,16278.17,678.9,4366.0,3037.44,4.54,218642
三元桥,116.456997,39.961508,1,10号线,1,1,POINT (12963247.34501382 4860155.450506362),210554.7,16278.17,678.9,4366.0,3037.44,4.54,218642
亮马桥,116.461794,39.949415,0,10号线,1,1,POINT (12963783.13045602 4858401.0067356),210554.7,16278.17,678.9,4366.0,3037.44,4.54,218642
农业展览馆,116.461724,39.941344,0,10号线,1,1,POINT (12963775.42732627 4857229.132716492),210554.7,16278.17,678.9,4366.0,3037.44,4.54,218642
团结湖,116.46180600000001,39.933747,0,10号线,1,1,POINT (12963784.69074551 4856126.259902649),210554.7,16278.17,678.9,4366.0,3037.44,4.54,218642
呼家楼,116.46161799999999,39.923337,1,10号线,1,1,POINT (12963763.84384947 4854615.112640088),210554.7,16278.17,678.9,4366.0,3037.44,4.54,218642
金台夕照,116.461743,39.916838,0,10号线,1,1,POINT (12963777.89335559 4853671.900130901),210554.7,16278.17,678.9,4366.0,3037.44,4.54,218642
国贸,116.46184099999999,39.909104,1,10号线,1,1,POINT (12963788.9452391 4852549.549703135),210554.7,16278.17,678.9,4366.0,3037.44,4.54,218642
双井,116.46183400000001,39.893512,1,10号线,1,1,POINT (12963788.38241001 4850287.172200135),210554.7,16278.17,678.9,4366.0,3037.44,4.54,218642
劲松,116.461325,39.884387,0,10号线,1,1,POINT (12963731.67286966 4848963.213369688),210554.7,16278.17,678.9,4366.0,3037.44,4.54,218642
潘家园,116.460926,39.875386999999996,0,10号线,1,1,POINT (12963687.24546687 4847657.603216954),210554.7,16278.17,678.9,4366.0,3037.44,4.54,218642
十里河,116.45798300000001,39.866417,1,10号线,1,1,POINT (12963358.76715905 4846355.657448332),210554.7,16278.17,678.9,4366.0,3037.44,4.54,218642
分钟寺,116.453976,39.852227,0,10号线,1,1,POINT (12962911.6216197 4844296.69732241),210554.7,16278.17,678.9,4366.0,3037.44,4.54,218642
成寿寺,116.44753100000001,39.845874,0,10号线,1,1,POINT (12962192.3468099 4843373.68551163),210554.7,16278.17,678.9,4366.0,3037.44,4.54,218642
宋家庄,116.42836799999999,39.845849,1,10号线,1,1,POINT (12960054.78451075 4843365.743614041),210554.7,16278.17,678.9,4366.0,3037.44,4.54,218642
石榴庄,116.414103,39.845905,0,10号线,1,1,POINT (12958465.01164868 4843372.134973907),210554.7,16278.17,678.9,4366.0,3037.44,4.54,218642
大红门,116.39915400000001,39.845383,0,10号线,1,1,POINT (12956800.39028201 4843296.06369447),210554.7,16278.17,678.9,4366.0,3037.44,4.54,218642
角门东,116.385649,39.845135,0,10号线,1,1,POINT (12955297.71935641 4843260.953505356),210554.7,16278.17,678.9,4366.0,3037.44,4.54,218642
角门西,116.371154,39.84585,1,10号线,1,1,POINT (12953685.96712904 4843366.647335039),210554.7,16278.17,678.9,4366.0,3037.44,4.54,218642
草桥,116.35138700000002,39.845869,1,10号线,1,1,POINT (12951489.42540047 4843373.652025228),210554.7,16278.17,678.9,4366.0,3037.44,4.54,218642
纪家庙,116.333381,39.844433,0,10号线,1,1,POINT (12949489.43043469 4843170.239465891),210554.7,16278.17,678.9,4366.0,3037.44,4.54,218642
首经贸,116.320202,39.844463,0,10号线,1,1,POINT (12948025.69898763 4843178.244447451),210554.7,16278.17,678.9,4366.0,3037.44,4.54,218642
丰台站,116.30453999999999,39.849639,0,10号线,1,1,POINT (12946285.86374477 4843932.793464176),210554.7,16278.17,678.9,4366.0,3037.44,4.54,218642
泥洼,116.30417299999999,39.858609,0,10号线,1,1,POINT (12946244.96575094 4845233.506911038),210554.7,16278.17,678.9,4366.0,3037.44,4.54,218642
西局,116.30381899999999,39.86677,1,10号线,1,1,POINT (12946205.52291018 4846417.065376814),210554.7,16278.17,678.9,4366.0,3037.44,4.54,218642
六里桥,116.30280800000001,39.880239,1,10号线,1,1,POINT (12946093.0115452 4848370.840290965),210554.7,16278.17,678.9,4366.0,3037.44,4.54,218642
莲花桥,116.310347,39.897867,0,10号线,1,1,POINT (12946930.30077029 4850926.271023946),210554.7,16278.17,678.9,4366.0,3037.44,4.54,218642
公主坟,116.309919,39.907469,1,10号线,1,1,POINT (12946882.62254934 4852319.647057403),210554.7,16278.17,678.9,4366.0,3037.44,4.54,218642
西钓鱼台,116.298064,39.923481,0,10号线,1,1,POINT (12945565.301714 4854646.365960944),210554.7,16278.17,678.9,4366.0,3037.44,4.54,218642
慈寿寺,116.29546699999999,39.933268,1,10号线,1,1,POINT (12945276.58069144 4856067.597664959),210554.7,16278.17,678.9,4366.0,3037.44,4.54,218642
车道沟,116.29381799999999,39.947922999999996,0,10号线,1,1,POINT (12945093.12375545 4858195.608190198),210554.7,16278.17,678.9,4366.0,3037.44,4.54,218642
长春桥,116.294255,39.958527000000004,0,10号线,1,1,POINT (12945141.54087683 4859735.315012661),210554.7,16278.17,678.9,4366.0,3037.44,4.54,218642
火器营,116.28905800000001,39.965938,0,10号线,1,1,POINT (12944563.83792051 4860812.681269631),210554.7,16278.17,678.9,4366.0,3037.44,4.54,218642
西直门,116.355426,39.940474,1,13号线,1,0,POINT (12951936.80891548 4857098.04269263),210554.7,16278.17,678.9,4366.0,3037.44,4.54,218642
大钟寺,116.34513899999999,39.966612,0,13号线,1,0,POINT (12950793.67356418 4860896.1145181),210554.7,16278.17,678.9,4366.0,3037.44,4.54,218642
知春路,116.33996,39.976476,1,13号线,1,0,POINT (12950218.28577971 4862330.223820257),210554.7,16278.17,678.9,4366.0,3037.44,4.54,218642
五道口,116.33774199999999,39.992894,0,13号线,1,0,POINT (12949971.70443204 4864715.967717609),210554.7,16278.17,678.9,4366.0,3037.44,4.54,218642
上地,116.32019299999999,40.033007,0,13号线,1,0,POINT (12948022.06058557 4870550.678338003),210554.7,16278.17,678.9,4366.0,3037.44,4.54,218642
清河,116.314797,40.041090000000004,0,13号线,1,0,POINT (12947422.60359127 4871727.304168078),210554.7,16278.17,678.9,4366.0,3037.44,4.54,218642
西二旗,116.30629499999999,40.053034000000004,1,13号线,1,0,POINT (12946478.00006601 4873466.267810141),210554.7,16278.17,678.9,4366.0,3037.44,4.54,218642
龙泽,116.319429,40.070882,0,13号线,1,0,POINT (12947936.67137029 4876058.559175578),210554.7,16278.17,678.9,4366.0,3037.44,4.54,218642
回龙观,116.33611599999999,40.0708,0,13号线,1,0,POINT (12949790.01047932 4876041.994069771),210554.7,16278.17,678.9,4366.0,3037.44,4.54,218642
霍营,116.36028600000002,40.071857,1,13号线,1,0,POINT (12952474.93348614 4876189.613821688),210554.7,16278.17,678.9,4366.0,3037.44,4.54,218642
立水桥,116.41235,40.053032,1,13号线,1,0,POINT (12958266.79140901 4873446.943436187),210554.7,16278.17,678.9,4366.0,3037.44,4.54,218642
北苑,116.434518,40.042997,0,13号线,1,0,POINT (12960737.769368 4871990.769787824),210554.7,16278.17,678.9,4366.0,3037.44,4.54,218642
望京西,116.44988400000001,39.995723999999996,1,13号线,1,0,POINT (12962452.8418157 4865123.554130556),210554.7,16278.17,678.9,4366.0,3037.44,4.54,218642
芍药居,116.435914,39.977636,1,13号线,1,0,POINT (12960894.39635263 4862492.167763297),210554.7,16278.17,678.9,4366.0,3037.44,4.54,218642
光熙门,116.43176100000001,39.968337,0,13号线,1,0,POINT (12960431.37160179 4861140.641235712),210554.7,16278.17,678.9,4366.0,3037.44,4.54,218642
柳芳,116.432728,39.958157,0,13号线,1,0,POINT (12960539.34996748 4859662.380689813),210554.7,16278.17,678.9,4366.0,3037.44,4.54,218642
东直门,116.435842,39.941626,1,13号线,1,0,POINT (12960886.87626702 4857262.680805778),210554.7,16278.17,678.9,4366.0,3037.44,4.54,218642
善各庄,116.478195,40.027159999999995,0,14号线东段,1,0,POINT (12965613.95361996 4869702.31544528),210554.7,16278.17,678.9,4366.0,3037.44,4.54,218642
来广营,116.466994,40.020588000000004,0,14号线东段,1,0,POINT (12964362.84698249 4868742.648579561),210554.7,16278.17,678.9,4366.0,3037.44,4.54,218642
东湖渠,116.46741200000001,40.010670000000005,0,14号线东段,1,0,POINT (12964409.67184278 4867301.3113848),210554.7,16278.17,678.9,4366.0,3037.44,4.54,218642
望京,116.46940900000001,39.998521000000004,1,14号线东段,1,0,POINT (12964632.8901902 4865536.596094368),210554.7,16278.17,678.9,4366.0,3037.44,4.54,218642
阜通,116.47174,39.991699,0,14号线东段,1,0,POINT (12964893.35489981 4864546.268654414),210554.7,16278.17,678.9,4366.0,3037.44,4.54,218642
望京南,116.48163400000001,39.984634,0,14号线东段,1,0,POINT (12965998.76635738 4863523.822243052),210554.7,16278.17,678.9,4366.0,3037.44,4.54,218642
将台,116.489496,39.971109000000006,0,14号线东段,1,0,POINT (12966877.4049889 4861562.478288248),210554.7,16278.17,678.9,4366.0,3037.44,4.54,218642
东风北桥,116.485919,39.958375,0,14号线东段,1,0,POINT (12966477.89976964 4859711.546989074),210554.7,16278.17,678.9,4366.0,3037.44,4.54,218642
枣营,116.474947,39.944132,0,14号线东段,1,0,POINT (12965252.2647384 4857638.875046051),210554.7,16278.17,678.9,4366.0,3037.44,4.54,218642
朝阳公园,116.478291,39.933492,0,14号线东段,1,0,POINT (12965625.98970155 4856095.518712249),210554.7,16278.17,678.9,4366.0,3037.44,4.54,218642
金台路,116.47811499999999,39.923556,1,14号线东段,1,0,POINT (12965606.46586321 4854653.16945614),210554.7,16278.17,678.9,4366.0,3037.44,4.54,218642
大望路,116.475783,39.908287,1,14号线东段,1,0,POINT (12965346.15711591 4852436.242112036),210554.7,16278.17,678.9,4366.0,3037.44,4.54,218642
九龙山,116.478695,39.893221999999994,1,14号线东段,1,0,POINT (12965671.68643594 4850251.526185118),210554.7,16278.17,678.9,4366.0,3037.44,4.54,218642
平乐园,116.47730700000001,39.885275,0,14号线东段,1,0,POINT (12965516.73188289 4849098.070804954),210554.7,16278.17,678.9,4366.0,3037.44,4.54,218642
北工大西门,116.477319,39.875445,0,14号线东段,1,0,POINT (12965518.20951583 4847672.199585654),210554.7,16278.17,678.9,4366.0,3037.44,4.54,218642
十里河,116.45798300000001,39.866417,1,14号线东段,1,0,POINT (12963358.76715905 4846355.657448332),210554.7,16278.17,678.9,4366.0,3037.44,4.54,218642
方庄,116.44024399999999,39.865868,0,14号线东段,1,0,POINT (12961378.98036717 4846270.92836145),210554.7,16278.17,678.9,4366.0,3037.44,4.54,218642
蒲黄榆,116.42371999999999,39.865621000000004,1,14号线东段,1,0,POINT (12959536.36570289 4846231.979421153),210554.7,16278.17,678.9,4366.0,3037.44,4.54,218642
景泰,116.411027,39.865255,0,14号线东段,1,0,POINT (12958122.09889725 4846177.682417949),210554.7,16278.17,678.9,4366.0,3037.44,4.54,218642
永定门外,116.399369,39.867435,1,14号线东段,1,0,POINT (12956824.00927849 4846493.634532218),210554.7,16278.17,678.9,4366.0,3037.44,4.54,218642
北京南站,116.37896299999998,39.865029,1,14号线东段,1,0,POINT (12954553.87321553 4846146.363438565),210554.7,16278.17,678.9,4366.0,3037.44,4.54,218642
西局,116.30381899999999,39.86677,1,14号线西段,1,0,POINT (12946205.52291018 4846417.065376814),210554.7,16278.17,678.9,4366.0,3037.44,4.54,218642
七里庄,116.294292,39.866772999999995,1,14号线西段,1,0,POINT (12945146.927313 4846419.709303805),210554.7,16278.17,678.9,4366.0,3037.44,4.54,218642
大井,116.27606100000001,39.865226,0,14号线西段,1,0,POINT (12943120.23108021 4846198.647802375),210554.7,16278.17,678.9,4366.0,3037.44,4.54,218642
郭庄子,116.253068,39.864841,0,14号线西段,1,0,POINT (12940561.79853343 4846144.690985357),210554.7,16278.17,678.9,4366.0,3037.44,4.54,218642
大瓦窑,116.24048,39.85947,0,14号线西段,1,0,POINT (12939159.96588828 4845365.637192603),210554.7,16278.17,678.9,4366.0,3037.44,4.54,218642
园博园,116.20164299999999,39.861328,0,14号线西段,1,0,POINT (12934829.59011935 4845629.493542891),210554.7,16278.17,678.9,4366.0,3037.44,4.54,218642
张郭庄,116.187193,39.8581,0,14号线西段,1,0,POINT (12933216.97285302 4845157.896362104),210554.7,16278.17,678.9,4366.0,3037.44,4.54,218642
俸伯,116.68473200000001,40.132573,0,15号线,1,0,POINT (12988617.94054989 4885056.140583481),210554.7,16278.17,678.9,4366.0,3037.44,4.54,218642
顺义,116.657023,40.129994,0,15号线,1,0,POINT (12985542.12556367 4884688.32807065),210554.7,16278.17,678.9,4366.0,3037.44,4.54,218642
石门,116.641117,40.129802000000005,0,15号线,1,0,POINT (12983775.98995423 4884664.332548875),210554.7,16278.17,678.9,4366.0,3037.44,4.54,218642
南法信,116.60953500000001,40.128478,0,15号线,1,0,POINT (12980266.25829763 4884476.544940859),210554.7,16278.17,678.9,4366.0,3037.44,4.54,218642
后沙峪,116.56421100000001,40.114127,0,15号线,1,0,POINT (12975219.03633579 4882384.473985772),210554.7,16278.17,678.9,4366.0,3037.44,4.54,218642
花梨坎,116.557593,40.084436,0,15号线,1,0,POINT (12974481.32427182 4878062.421924119),210554.7,16278.17,678.9,4366.0,3037.44,4.54,218642
国展,116.555127,40.070029999999996,0,15号线,1,0,POINT (12974206.41679781 4875966.139318262),210554.7,16278.17,678.9,4366.0,3037.44,4.54,218642
孙河,116.5347,40.045113,0,15号线,1,0,POINT (12971926.7061808 4872335.969867274),210554.7,16278.17,678.9,4366.0,3037.44,4.54,218642
马泉营,116.50348000000001,40.033721,0,15号线,1,0,POINT (12968439.1462437 4870666.903959867),210554.7,16278.17,678.9,4366.0,3037.44,4.54,218642
崔各庄,116.49296799999999,40.022201,0,15号线,1,0,POINT (12967264.65737491 4868987.705764184),210554.7,16278.17,678.9,4366.0,3037.44,4.54,218642
望京东,116.487105,40.0032,0,15号线,1,0,POINT (12966609.7926722 4866223.678357524),210554.7,16278.17,678.9,4366.0,3037.44,4.54,218642
望京,116.46940900000001,39.998521000000004,1,15号线,1,0,POINT (12964632.8901902 4865536.596094368),210554.7,16278.17,678.9,4366.0,3037.44,4.54,218642
望京西,116.44988400000001,39.995723999999996,1,15号线,1,0,POINT (12962452.8418157 4865123.554130556),210554.7,16278.17,678.9,4366.0,3037.44,4.54,218642
关庄,116.430947,40.001134,0,15号线,1,0,POINT (12960340.13776424 4865905.10284819),210554.7,16278.17,678.9,4366.0,3037.44,4.54,218642
大屯路东,116.417377,40.003840999999994,1,15号线,1,0,POINT (12958827.52974212 4866296.562369704),210554.7,16278.17,678.9,4366.0,3037.44,4.54,218642
安立路,116.407845,40.002619,0,15号线,1,0,POINT (12957765.76359207 4866118.366965523),210554.7,16278.17,678.9,4366.0,3037.44,4.54,218642
奥林匹克公园,116.39175800000001,40.002207,1,15号线,1,0,POINT (12955975.09530172 4866058.773799182),210554.7,16278.17,678.9,4366.0,3037.44,4.54,218642
北沙滩,116.36814299999999,40.001492,0,15号线,1,0,POINT (12953349.0845374 4865957.984743912),210554.7,16278.17,678.9,4366.0,3037.44,4.54,218642
六道口,116.35266999999999,40.000958000000004,0,15号线,1,0,POINT (12951629.76917236 4865883.780998376),210554.7,16278.17,678.9,4366.0,3037.44,4.54,218642
清华东路西口,116.33953000000001,40.000673,0,15号线,1,0,POINT (12950170.18470975 4865845.780147534),210554.7,16278.17,678.9,4366.0,3037.44,4.54,218642
北安河,116.13042800000001,40.068128,0,16号线,1,0,POINT (12926878.36491282 4875646.123803192),210554.7,16278.17,678.9,4366.0,3037.44,4.54,218642
温阳路,116.16136100000001,40.068515999999995,0,16号线,1,0,POINT (12930330.35256851 4875709.674517374),210554.7,16278.17,678.9,4366.0,3037.44,4.54,218642
稻香湖路,116.18814499999999,40.068936,0,16号线,1,0,POINT (12933320.2781035 4875777.962265671),210554.7,16278.17,678.9,4366.0,3037.44,4.54,218642
屯佃,116.21585,40.068453999999996,0,16号线,1,0,POINT (12936411.59501007 4875713.951541631),210554.7,16278.17,678.9,4366.0,3037.44,4.54,218642
永丰,116.23848100000001,40.071868,0,16号线,1,0,POINT (12938934.31274809 4876213.190786553),210554.7,16278.17,678.9,4366.0,3037.44,4.54,218642
永丰南,116.248154,40.065575,0,16号线,1,0,POINT (12940011.85662858 4875298.183295227),210554.7,16278.17,678.9,4366.0,3037.44,4.54,218642
西北旺,116.257923,40.048703,0,16号线,1,0,POINT (12941099.70741892 4872844.325303948),210554.7,16278.17,678.9,4366.0,3037.44,4.54,218642
马连洼,116.27252,40.032637,0,16号线,1,0,POINT (12942724.08373782 4870507.17913945),210554.7,16278.17,678.9,4366.0,3037.44,4.54,218642
农大南路,116.28227199999999,40.021398,0,16号线,1,0,POINT (12943808.69686628 4868871.98897745),210554.7,16278.17,678.9,4366.0,3037.44,4.54,218642
西苑,116.290908,39.998258,1,16号线,1,0,POINT (12944769.01074928 4865507.455940211),210554.7,16278.17,678.9,4366.0,3037.44,4.54,218642
四惠,116.495456,39.908749,1,八通线,1,0,POINT (12967544.24937834 4852511.554522421),210554.7,16278.17,678.9,4366.0,3037.44,4.54,218642
四惠东,116.51566399999999,39.908495,1,八通线,1,0,POINT (12969802.26224197 4852483.40039706),210554.7,16278.17,678.9,4366.0,3037.44,4.54,218642
高碑店,116.531421,39.909448,0,八通线,1,0,POINT (12971562.38380443 4852628.00648839),210554.7,16278.17,678.9,4366.0,3037.44,4.54,218642
传媒大学,116.554639,39.909215,0,八通线,1,0,POINT (12974154.15760306 4852601.776440972),210554.7,16278.17,678.9,4366.0,3037.44,4.54,218642
双桥,116.57670900000001,39.910139,0,八通线,1,0,POINT (12976614.97069469 4852740.355590456),210554.7,16278.17,678.9,4366.0,3037.44,4.54,218642
管庄,116.599002,39.90909,0,八通线,1,0,POINT (12979097.44683322 4852589.512436239),210554.7,16278.17,678.9,4366.0,3037.44,4.54,218642
八里桥,116.61865800000001,39.906121,0,八通线,1,0,POINT (12981283.65466212 4852157.30795675),210554.7,16278.17,678.9,4366.0,3037.44,4.54,218642
通州北苑,116.637252,39.903864,0,八通线,1,0,POINT (12983349.79550535 4851826.6231281),210554.7,16278.17,678.9,4366.0,3037.44,4.54,218642
果园,116.646606,39.893392999999996,0,八通线,1,0,POINT (12984388.77740899 4850305.223800075),210554.7,16278.17,678.9,4366.0,3037.44,4.54,218642
九棵树,116.657533,39.890278,0,八通线,1,0,POINT (12985602.03067954 4849850.510993054),210554.7,16278.17,678.9,4366.0,3037.44,4.54,218642
梨园,116.66872,39.883677,0,八通线,1,0,POINT (12986843.97975434 4848889.856649519),210554.7,16278.17,678.9,4366.0,3037.44,4.54,218642
临河里,116.67881100000001,39.875496000000005,0,八通线,1,0,POINT (12987964.22517474 4847700.382050563),210554.7,16278.17,678.9,4366.0,3037.44,4.54,218642
土桥,116.68634899999999,39.871926,0,八通线,1,0,POINT (12988801.05171245 4847180.543146246),210554.7,16278.17,678.9,4366.0,3037.44,4.54,218642
花庄,116.695495,39.856722,1,八通线,1,0,POINT (12989816.65454864 4844973.314038069),210554.7,16278.17,678.9,4366.0,3037.44,4.54,218642
昌平西山口,116.195371,40.244624,0,昌平线,1,0,POINT (12934124.29943497 4901365.738092589),210554.7,16278.17,678.9,4366.0,3037.44,4.54,218642
十三陵景区,116.207729,40.240255,0,昌平线,1,0,POINT (12935503.31539649 4900731.478343414),210554.7,16278.17,678.9,4366.0,3037.44,4.54,218642
昌平,116.23358999999999,40.22055,0,昌平线,1,0,POINT (12938387.23742055 4897862.654566285),210554.7,16278.17,678.9,4366.0,3037.44,4.54,218642
昌平东关,116.26205900000001,40.221726000000004,0,昌平线,1,0,POINT (12941557.60472956 4898034.315825977),210554.7,16278.17,678.9,4366.0,3037.44,4.54,218642
北邵洼,116.281949,40.222001,0,昌平线,1,0,POINT (12943769.97923984 4898072.00672771),210554.7,16278.17,678.9,4366.0,3037.44,4.54,218642
南邵,116.28753400000001,40.207491999999995,0,昌平线,1,0,POINT (12944391.06179259 4895956.292624435),210554.7,16278.17,678.9,4366.0,3037.44,4.54,218642
沙河高教园,116.28046499999999,40.164666,0,昌平线,1,0,POINT (12943605.78533587 4889718.088414824),210554.7,16278.17,678.9,4366.0,3037.44,4.54,218642
沙河,116.28886499999999,40.148278000000005,0,昌平线,1,0,POINT (12944539.83926714 4887329.947199902),210554.7,16278.17,678.9,4366.0,3037.44,4.54,218642
巩华城,116.29397900000001,40.1309,0,昌平线,1,0,POINT (12945108.4602387 4884798.682188382),210554.7,16278.17,678.9,4366.0,3037.44,4.54,218642
朱辛庄,116.313698,40.104296999999995,1,昌平线,1,0,POINT (12947299.64204831 4880921.700077066),210554.7,16278.17,678.9,4366.0,3037.44,4.54,218642
生命科学园,116.29423,40.09479,0,昌平线,1,0,POINT (12945136.86022685 4879543.059393322),210554.7,16278.17,678.9,4366.0,3037.44,4.54,218642
西二旗,116.30629499999999,40.053034000000004,1,昌平线,1,0,POINT (12946478.00006601 4873466.267810141),210554.7,16278.17,678.9,4366.0,3037.44,4.54,218642
草桥,116.35138700000002,39.845869,1,大兴国际机场线,1,0,POINT (12951489.42540047 4843373.652025228),210554.7,16278.17,678.9,4366.0,3037.44,4.54,218642
大兴新城,116.365522,39.735583,0,大兴国际机场线,1,0,POINT (12953061.53877466 4827394.569364872),210554.7,16278.17,678.9,4366.0,3037.44,4.54,218642
大兴机场,116.416725,39.511375,0,大兴国际机场线,1,0,POINT (12958761.82383628 4794995.420195329),210554.7,16278.17,678.9,4366.0,3037.44,4.54,218642
阎村东,116.10081699999999,39.729028,1,房山线,1,0,POINT (12923582.47710853 4826442.898694137),210554.7,16278.17,678.9,4366.0,3037.44,4.54,218642
苏庄,116.12530600000001,39.723188,0,房山线,1,0,POINT (12926312.00028645 4825599.871305143),210554.7,16278.17,678.9,4366.0,3037.44,4.54,218642
良乡南关,116.140804,39.723202,0,房山线,1,0,POINT (12928040.85797625 4825604.789832385),210554.7,16278.17,678.9,4366.0,3037.44,4.54,218642
良乡大学城西,116.156282,39.723157,0,房山线,1,0,POINT (12929768.27441529 4825601.982520076),210554.7,16278.17,678.9,4366.0,3037.44,4.54,218642
良乡大学城,116.17654099999999,39.723159,0,房山线,1,0,POINT (12932029.80404583 4825607.694016283),210554.7,16278.17,678.9,4366.0,3037.44,4.54,218642
良乡大学城北,116.18348,39.729906,0,房山线,1,0,POINT (12932804.30407008 4826585.963662708),210554.7,16278.17,678.9,4366.0,3037.44,4.54,218642
广阳城,116.18498500000001,39.74793,0,房山线,1,0,POINT (12932972.04765564 4829195.253671994),210554.7,16278.17,678.9,4366.0,3037.44,4.54,218642
篱笆房,116.18948600000002,39.760636,0,房山线,1,0,POINT (12933474.26820618 4831035.981823333),210554.7,16278.17,678.9,4366.0,3037.44,4.54,218642
长阳,116.21269199999999,39.763871,0,房山线,1,0,POINT (12936063.598901 4831509.570219761),210554.7,16278.17,678.9,4366.0,3037.44,4.54,218642
稻田,116.21883999999999,39.794885,0,房山线,1,0,POINT (12936748.84595754 4836002.512888781),210554.7,16278.17,678.9,4366.0,3037.44,4.54,218642
大葆台,116.29168100000001,39.807809999999996,0,房山线,1,0,POINT (12944857.56676669 4837872.956575066),210554.7,16278.17,678.9,4366.0,3037.44,4.54,218642
郭公庄,116.30188899999999,39.814322,1,房山线,1,0,POINT (12945991.8207823 4838814.277528564),210554.7,16278.17,678.9,4366.0,3037.44,4.54,218642
T3航站楼,116.615583,40.052657,0,首都机场线,1,0,POINT (12980939.81553894 4873444.21069164),210554.7,16278.17,678.9,4366.0,3037.44,4.54,218642
T2航站楼,116.592808,40.079311,0,首都机场线,1,0,POINT (12978405.73573246 4877321.894703454),210554.7,16278.17,678.9,4366.0,3037.44,4.54,218642
三元桥,116.456997,39.961508,1,首都机场线,1,0,POINT (12963247.34501382 4860155.450506362),210554.7,16278.17,678.9,4366.0,3037.44,4.54,218642
东直门,116.435842,39.941626,1,首都机场线,1,0,POINT (12960886.87626702 4857262.680805778),210554.7,16278.17,678.9,4366.0,3037.44,4.54,218642
巴沟,116.293727,39.974179,1,西郊线,1,0,POINT (12945082.64518962 4862008.683452954),210554.7,16278.17,678.9,4366.0,3037.44,4.54,218642
颐和园西门,116.263248,39.985696999999995,0,西郊线,1,0,POINT (12941693.20890944 4863686.421836009),210554.7,16278.17,678.9,4366.0,3037.44,4.54,218642
茶棚,116.2481,39.982113,0,西郊线,1,0,POINT (12940007.00314072 4863166.278826553),210554.7,16278.17,678.9,4366.0,3037.44,4.54,218642
万安,116.231977,39.984001,0,西郊线,1,0,POINT (12938210.77853866 4863439.731698454),210554.7,16278.17,678.9,4366.0,3037.44,4.54,218642
植物园,116.214853,39.993582,0,西郊线,1,0,POINT (12936301.44405147 4864829.380493464),210554.7,16278.17,678.9,4366.0,3037.44,4.54,218642
香山,116.20449099999999,39.994056,0,西郊线,1,0,POINT (12935145.51507355 4864896.225066158),210554.7,16278.17,678.9,4366.0,3037.44,4.54,218642
阎村东,116.10081699999999,39.729028,1,燕房线,1,0,POINT (12923582.47710853 4826442.898694137),210554.7,16278.17,678.9,4366.0,3037.44,4.54,218642
紫草坞,116.08672,39.724606,0,燕房线,1,0,POINT (12922012.96565102 4825803.377911329),210554.7,16278.17,678.9,4366.0,3037.44,4.54,218642
阎村,116.080165,39.716731,0,燕房线,1,0,POINT (12921283.66891499 4824664.460804905),210554.7,16278.17,678.9,4366.0,3037.44,4.54,218642
星城,116.06137,39.713681,0,燕房线,1,0,POINT (12919193.799324 4824226.49646501),210554.7,16278.17,678.9,4366.0,3037.44,4.54,218642
大石河东,116.039906,39.709893,0,燕房线,1,0,POINT (12916809.62921349 4823684.757112468),210554.7,16278.17,678.9,4366.0,3037.44,4.54,218642
马各庄,116.01660600000001,39.705103,0,燕房线,1,0,POINT (12914223.72308204 4823000.856340401),210554.7,16278.17,678.9,4366.0,3037.44,4.54,218642
饶乐府,116.006103,39.701471000000005,0,燕房线,1,0,POINT (12913058.51121488 4822479.958596276),210554.7,16278.17,678.9,4366.0,3037.44,4.54,218642
房山城关,115.989599,39.706061,0,燕房线,1,0,POINT (12911227.50305096 4823151.22010952),210554.7,16278.17,678.9,4366.0,3037.44,4.54,218642
燕山,115.973395,39.719615000000005,0,燕房线,1,0,POINT (12909429.32505723 4825119.105910601),210554.7,16278.17,678.9,4366.0,3037.44,4.54,218642
宋家庄,116.42836799999999,39.845849,1,亦庄线,1,0,POINT (12960054.78451075 4843365.743614041),210554.7,16278.17,678.9,4366.0,3037.44,4.54,218642
肖村,116.44836399999998,39.834216999999995,0,亦庄线,1,0,POINT (12962285.4749466 4841684.049265632),210554.7,16278.17,678.9,4366.0,3037.44,4.54,218642
小红门,116.459226,39.827951,0,亦庄线,1,0,POINT (12963498.09033903 4840779.206262006),210554.7,16278.17,678.9,4366.0,3037.44,4.54,218642
旧宫,116.46078899999999,39.806909999999995,0,亦庄线,1,0,POINT (12963672.90664781 4837730.537600718),210554.7,16278.17,678.9,4366.0,3037.44,4.54,218642
亦庄桥,116.48030700000001,39.803011,0,亦庄线,1,0,POINT (12965853.03658516 4837173.052945348),210554.7,16278.17,678.9,4366.0,3037.44,4.54,218642
亦庄文化园,116.490632,39.80689,0,亦庄线,1,0,POINT (12967006.61853094 4837739.427169043),210554.7,16278.17,678.9,4366.0,3037.44,4.54,218642
万源街,116.505403,39.802971,0,亦庄线,1,0,POINT (12968657.2097723 4837177.994033523),210554.7,16278.17,678.9,4366.0,3037.44,4.54,218642
荣京东街,116.51332099999999,39.793189,0,亦庄线,1,0,POINT (12969542.06425024 4835764.215679197),210554.7,16278.17,678.9,4366.0,3037.44,4.54,218642
荣昌东街,116.52168799999998,39.782832,0,亦庄线,1,0,POINT (12970476.97297422 4834267.443534837),210554.7,16278.17,678.9,4366.0,3037.44,4.54,218642
同济南路,116.539901,39.772962,0,亦庄线,1,0,POINT (12972511.13303022 4832844.819568021),210554.7,16278.17,678.9,4366.0,3037.44,4.54,218642
经海路,116.562321,39.783673,0,亦庄线,1,0,POINT (12975012.74378264 4834402.532848227),210554.7,16278.17,678.9,4366.0,3037.44,4.54,218642
次渠南,116.58135700000001,39.795118,0,亦庄线,1,0,POINT (12977134.3741595 4836063.560904128),210554.7,16278.17,678.9,4366.0,3037.44,4.54,218642
次渠,116.591502,39.8035,0,亦庄线,1,0,POINT (12978264.06447657 4837278.653341299),210554.7,16278.17,678.9,4366.0,3037.44,4.54,218642
亦庄火车站,116.60191299999998,39.812607,0,亦庄线,1,0,POINT (12979422.66060446 4838598.283691232),210554.7,16278.17,678.9,4366.0,3037.44,4.54,218642
